{
    "results": [
        {
            "business_status": "OPERATIONAL",
            "geometry": {
                "location": {
                    "lat": 34.786966,
                    "lng": -1.941187
                },
                "viewport": {
                    "northeast": {
                        "lat": 34.78814827989272,
                        "lng": -1.939788270107278
                    },
                    "southwest": {
                        "lat": 34.78544862010727,
                        "lng": -1.942487929892722
                    }
                }
            },
            "icon": "https://maps.gstatic.com/mapfiles/place_api/icons/v1/png_71/generic_business-71.png",
            "name": "Hertz [Oujda Airport]",
            "photos": [
                {
                    "height": 399,
                    "photo_reference": "ATtYBwJJXkVDertEYY1J69dGWMJTjRU6bFUP3MY1tTMQQwUgfMB6fj9C2r6OoYJr5y97FlHHQoekHzoUo1QdCzKm7CicQzMeFyXK6UdjCOHrIFiF7xqChtsW0nwPtAEhjNTSfEI3NSFL1YWv7dyz3QN9Lj8-Q8yOnq0C3FcuoOCyxZWhLTZU",
                    "width": 711
                }
            ],
            "place_id": "ChIJN_r_W8FmeA0RReMLcC9Njzs",
            "rating": 3.5,
            "reference": "ChIJN_r_W8FmeA0RReMLcC9Njzs",
            "scope": "MEANZ TEST",
            "types": [
                "car_rental",
                "point_of_interest",
                "establishment"
            ],
            "user_ratings_total": 21,
            "vicinity": "Aéroport Les Angades, Oujda 60000, Morocco ",
            "opening_hours": {
                "open_now": true
            }
        },
        {
            "business_status": "OPERATIONAL",
            "geometry": {
                "location": {
                    "lat": 34.7878995,
                    "lng": -1.9413591
                },
                "viewport": {
                    "northeast": {
                        "lat": 34.78924932989272,
                        "lng": -1.940009270107278
                    },
                    "southwest": {
                        "lat": 34.78654967010727,
                        "lng": -1.942708929892722
                    }
                }
            },
            "icon": "https://maps.gstatic.com/mapfiles/place_api/icons/v1/png_71/generic_business-71.png",
            "name": "surprice car rentals oujda",
            "photos": [
                {
                    "height": 1280,
                    "photo_reference": "ATtYBwKTYh8oULYlPKqajZw-QhKiTbsQWFhcTTe6jyc86UHZGNJBYqa-shwD0RLgoFA6oitpJ7xNGf3btdF14KfHr7RjL0_5F9lLEdAa6GLYSHdzsRZen7jpBl9jC1GK741BkZvwjLFCKPtX1EQ8RgCqMdaiRxyu6A9EhXRCuuNLIxkXyZbW",
                    "width": 960
                }
            ],
            "place_id": "ChIJufDp0ERneA0RQ4nlFdpOkp4",
            "rating": 0.0,
            "reference": "ChIJufDp0ERneA0RQ4nlFdpOkp4",
            "scope": "MEANZ TEST",
            "types": [
                "car_rental",
                "point_of_interest",
                "establishment"
            ],
            "user_ratings_total": 0,
            "vicinity": "Oujda 60040, Morocco ",
            "opening_hours": {
                "open_now": true
            }
        },
        {
            "business_status": "OPERATIONAL",
            "geometry": {
                "location": {
                    "lat": 34.7870041,
                    "lng": -1.9412464
                },
                "viewport": {
                    "northeast": {
                        "lat": 34.78816162989272,
                        "lng": -1.939850420107278
                    },
                    "southwest": {
                        "lat": 34.78546197010728,
                        "lng": -1.942550079892722
                    }
                }
            },
            "icon": "https://maps.gstatic.com/mapfiles/place_api/icons/v1/png_71/generic_business-71.png",
            "name": "Sixt Rent a Car Aéroport d'Oujda-Angad",
            "photos": [
                {
                    "height": 960,
                    "photo_reference": "ATtYBwL7qHZya4qP8qOqs621ROahzu-orXCps-xXrOLOVOOf1p8qsW9ouKshnuT_WnXe598DB8vD3kg9JvxqPjQvMsdpZwMeNYZNCVkMk3mckx-gAToKIGoL2CO0ROvckg8ho3Wyh4PbnI7NQseYn9jFPjbYagR7KHbu3E68MvYuPgbMrxIp",
                    "width": 1280
                }
            ],
            "place_id": "ChIJW0bOV0ZneA0RwyRd290hXpE",
            "rating": 5.0,
            "reference": "ChIJW0bOV0ZneA0RwyRd290hXpE",
            "scope": "MEANZ TEST",
            "types": [
                "car_rental",
                "point_of_interest",
                "establishment"
            ],
            "user_ratings_total": 8,
            "vicinity": "Aéroport Oujda، Oujda 60023, Morocco ",
            "opening_hours": {
                "open_now": true
            }
        },
        {
            "business_status": "OPERATIONAL",
            "geometry": {
                "location": {
                    "lat": 34.7869106,
                    "lng": -1.9403342
                },
                "viewport": {
                    "northeast": {
                        "lat": 34.78826042989272,
                        "lng": -1.938984370107277
                    },
                    "southwest": {
                        "lat": 34.78556077010727,
                        "lng": -1.941684029892722
                    }
                }
            },
            "icon": "https://maps.gstatic.com/mapfiles/place_api/icons/v1/png_71/generic_business-71.png",
            "name": "AVIS® - Location de Voiture Oujda Aéroport",
            "photos": [
                {
                    "height": 774,
                    "photo_reference": "ATtYBwKX2Xgfz6hMBcX-W4OeQ5EJ3ESJJUMU90-HiAEnEG_jOUMGwbrmgcw-ay2CGU9x8f7kfzKz7McRrfg8bvhP7CI0cttOA3LcRQEstuHMwWzhfEosgXNLiFZPRxqRWi9M7cYZdH5IvG4sOL45Loy-z2kCHAM-AldO-bFZaYgEli8g_SRJ",
                    "width": 1032
                }
            ],
            "place_id": "ChIJWWy0IpFmeA0RfGxn4xJypNs",
            "rating": 4.8,
            "reference": "ChIJWWy0IpFmeA0RfGxn4xJypNs",
            "scope": "MEANZ TEST",
            "types": [
                "car_rental",
                "point_of_interest",
                "establishment"
            ],
            "user_ratings_total": 50,
            "vicinity": "Aéroport Oujda-Angads، Oujda, Morocco ",
            "opening_hours": {
                "open_now": true
            }
        },
        {
            "business_status": "OPERATIONAL",
            "geometry": {
                "location": {
                    "lat": 34.7872596,
                    "lng": -1.9405712
                },
                "viewport": {
                    "northeast": {
                        "lat": 34.78860942989272,
                        "lng": -1.939221370107278
                    },
                    "southwest": {
                        "lat": 34.78590977010728,
                        "lng": -1.941921029892722
                    }
                }
            },
            "icon": "https://maps.gstatic.com/mapfiles/place_api/icons/v1/png_71/generic_business-71.png",
            "name": "Wanalou Aéroport Oujda",
            "photos": null,
            "place_id": "ChIJLxRxOB5neA0RNeUAikNt2do",
            "rating": 0.0,
            "reference": "ChIJLxRxOB5neA0RNeUAikNt2do",
            "scope": "MEANZ TEST",
            "types": [
                "car_rental",
                "point_of_interest",
                "establishment"
            ],
            "user_ratings_total": 0,
            "vicinity": "Aéroport d'Oujda، Angad, Oujda 60020, Morocco ",
            "opening_hours": null
        },
        {
            "business_status": "OPERATIONAL",
            "geometry": {
                "location": {
                    "lat": 34.7873477,
                    "lng": -1.9405498
                },
                "viewport": {
                    "northeast": {
                        "lat": 34.78869752989272,
                        "lng": -1.939199970107278
                    },
                    "southwest": {
                        "lat": 34.78599787010727,
                        "lng": -1.941899629892723
                    }
                }
            },
            "icon": "https://maps.gstatic.com/mapfiles/place_api/icons/v1/png_71/generic_business-71.png",
            "name": "AIRCAR",
            "photos": null,
            "place_id": "ChIJO6vkk_FmeA0RfFU4_esfE7M",
            "rating": 4.3,
            "reference": "ChIJO6vkk_FmeA0RfFU4_esfE7M",
            "scope": "MEANZ TEST",
            "types": [
                "car_rental",
                "point_of_interest",
                "establishment"
            ],
            "user_ratings_total": 7,
            "vicinity": "Angad Terminal 1, Oujda 60000, Morocco ",
            "opening_hours": {
                "open_now": true
            }
        },
        {
            "business_status": "OPERATIONAL",
            "geometry": {
                "location": {
                    "lat": 34.7875207,
                    "lng": -1.9410804
                },
                "viewport": {
                    "northeast": {
                        "lat": 34.78887052989272,
                        "lng": -1.939730570107278
                    },
                    "southwest": {
                        "lat": 34.78617087010728,
                        "lng": -1.942430229892722
                    }
                }
            },
            "icon": "https://maps.gstatic.com/mapfiles/place_api/icons/v1/png_71/generic_business-71.png",
            "name": "Alkaficars oujda",
            "photos": null,
            "place_id": "ChIJq5c-DkVneA0Rw-SvipJTel0",
            "rating": 0.0,
            "reference": "ChIJq5c-DkVneA0Rw-SvipJTel0",
            "scope": "MEANZ TEST",
            "types": [
                "car_rental",
                "point_of_interest",
                "establishment"
            ],
            "user_ratings_total": 0,
            "vicinity": "Boulevard Hassan II، Oujda 60040, Morocco ",
            "opening_hours": {
                "open_now": true
            }
        },
        {
            "business_status": "OPERATIONAL",
            "geometry": {
                "location": {
                    "lat": 34.7869267,
                    "lng": -1.9414513
                },
                "viewport": {
                    "northeast": {
                        "lat": 34.78810552989272,
                        "lng": -1.940060420107278
                    },
                    "southwest": {
                        "lat": 34.78540587010728,
                        "lng": -1.942760079892722
                    }
                }
            },
            "icon": "https://maps.gstatic.com/mapfiles/place_api/icons/v1/png_71/generic_business-71.png",
            "name": "Budget",
            "photos": [
                {
                    "height": 3181,
                    "photo_reference": "ATtYBwITx4dKYnqrgDunMqKTUEDDO5JFqDBWLvoMA9o1i5sI2yhqzSfP0VxJ7YdxATgwUfFHgKi_LaZaUXo1Ke07FWtKblcFzVi82umZaFivu568_uSoT9G3aOBVh-rUNP17Kxeb8WMjFsoxPY7u7_itCHq6qWmMzYKqiqT6h-WX30rswdC-",
                    "width": 1700
                }
            ],
            "place_id": "ChIJdZWFjfFmeA0RUlC8URy8TD4",
            "rating": 3.0,
            "reference": "ChIJdZWFjfFmeA0RUlC8URy8TD4",
            "scope": "MEANZ TEST",
            "types": [
                "car_rental",
                "point_of_interest",
                "establishment"
            ],
            "user_ratings_total": 2,
            "vicinity": "Oujda, Morocco ",
            "opening_hours": {
                "open_now": true
            }
        },
        {
            "business_status": "OPERATIONAL",
            "geometry": {
                "location": {
                    "lat": 34.9510748,
                    "lng": -2.1023257
                },
                "viewport": {
                    "northeast": {
                        "lat": 34.95242582989273,
                        "lng": -2.100926220107278
                    },
                    "southwest": {
                        "lat": 34.94972617010728,
                        "lng": -2.103625879892722
                    }
                }
            },
            "icon": "https://maps.gstatic.com/mapfiles/place_api/icons/v1/png_71/generic_business-71.png",
            "name": "Location des voitures Aghbal s.a.r.l",
            "photos": null,
            "place_id": "ChIJVTHm7d5GeA0Rh_WxNF9JTq8",
            "rating": 5.0,
            "reference": "ChIJVTHm7d5GeA0Rh_WxNF9JTq8",
            "scope": "MEANZ TEST",
            "types": [
                "car_rental",
                "point_of_interest",
                "establishment"
            ],
            "user_ratings_total": 6,
            "vicinity": "6 Boulevard Hassan II, Ahfir, Morocco ",
            "opening_hours": {
                "open_now": true
            }
        },
        {
            "business_status": "OPERATIONAL",
            "geometry": {
                "location": {
                    "lat": 34.7869545,
                    "lng": -1.9410533
                },
                "viewport": {
                    "northeast": {
                        "lat": 34.78814482989272,
                        "lng": -1.939709620107277
                    },
                    "southwest": {
                        "lat": 34.78544517010727,
                        "lng": -1.942409279892722
                    }
                }
            },
            "icon": "https://maps.gstatic.com/mapfiles/place_api/icons/v1/png_71/generic_business-71.png",
            "name": "FireFly [Oujda Airport]",
            "photos": null,
            "place_id": "ChIJY39ANg5neA0Rcb9mnLfUlUQ",
            "rating": 5.0,
            "reference": "ChIJY39ANg5neA0Rcb9mnLfUlUQ",
            "scope": "MEANZ TEST",
            "types": [
                "car_rental",
                "point_of_interest",
                "establishment"
            ],
            "user_ratings_total": 1,
            "vicinity": "Aéroport Les Angades, Oujda 60000, Morocco ",
            "opening_hours": {
                "open_now": true
            }
        },
        {
            "business_status": "OPERATIONAL",
            "geometry": {
                "location": {
                    "lat": 34.683432,
                    "lng": -1.915883
                },
                "viewport": {
                    "northeast": {
                        "lat": 34.68481087989272,
                        "lng": -1.914509020107278
                    },
                    "southwest": {
                        "lat": 34.68211122010728,
                        "lng": -1.917208679892723
                    }
                }
            },
            "icon": "https://maps.gstatic.com/mapfiles/place_api/icons/v1/png_71/generic_business-71.png",
            "name": "location de voiture oujda Clic Car",
            "photos": [
                {
                    "height": 4032,
                    "photo_reference": "ATtYBwK8I3i3sY3E6Hq-zNiNFmgPYDEvmYzMmeBXFWPXQC3gmbLM2a0PCb0Oo5uQD2lxTxs9o8nJklXLlNG-TGV8Rl_O5uSalJigMBUdbpoM2nNAxnPk89dMU93L0d_Iu0uQVnS5Hcbu-VuOOxVssdRDC-kFLoYvlYMri6EaUELyaqyt57Pe",
                    "width": 3024
                }
            ],
            "place_id": "ChIJleNtrqVkeA0Rc1lzSaM9aEc",
            "rating": 4.8,
            "reference": "ChIJleNtrqVkeA0Rc1lzSaM9aEc",
            "scope": "MEANZ TEST",
            "types": [
                "car_rental",
                "point_of_interest",
                "establishment"
            ],
            "user_ratings_total": 28,
            "vicinity": "Angel med 5 rue anoual immuabele moumni appartement 7 1er étage، Oujda 60000, Morocco ",
            "opening_hours": {
                "open_now": true
            }
        },
        {
            "business_status": "OPERATIONAL",
            "geometry": {
                "location": {
                    "lat": 34.6822476,
                    "lng": -1.9162993
                },
                "viewport": {
                    "northeast": {
                        "lat": 34.68364852989272,
                        "lng": -1.915020720107277
                    },
                    "southwest": {
                        "lat": 34.68094887010728,
                        "lng": -1.917720379892722
                    }
                }
            },
            "icon": "https://maps.gstatic.com/mapfiles/place_api/icons/v1/png_71/generic_business-71.png",
            "name": "location voiture oujda DK",
            "photos": [
                {
                    "height": 676,
                    "photo_reference": "ATtYBwKJgLIFF-AOHv9_-ZfTbTxlpnwX50VGQo1aU8I0iqajsfjhlEfHYufQ0pfkON4b6SHBnmT0dkFkEtu00n1xNcHQDQa06Mi8Jjakn7N9tkWwSwYO6sm_CEDBhK0Jyr3FBPWh_NLTSahPYmUyiuBEJMJwxfnloc5ldHsRDSJfBfotv7Li",
                    "width": 565
                }
            ],
            "place_id": "ChIJVyArgqZkeA0RJFsPlNtRF-k",
            "rating": 4.3,
            "reference": "ChIJVyArgqZkeA0RJFsPlNtRF-k",
            "scope": "MEANZ TEST",
            "types": [
                "car_rental",
                "point_of_interest",
                "establishment"
            ],
            "user_ratings_total": 45,
            "vicinity": "30 P1, Oujda 60000, Morocco ",
            "opening_hours": {
                "open_now": true
            }
        },
        {
            "business_status": "OPERATIONAL",
            "geometry": {
                "location": {
                    "lat": 34.6840887,
                    "lng": -1.9133602
                },
                "viewport": {
                    "northeast": {
                        "lat": 34.68544692989272,
                        "lng": -1.912067120107278
                    },
                    "southwest": {
                        "lat": 34.68274727010728,
                        "lng": -1.914766779892723
                    }
                }
            },
            "icon": "https://maps.gstatic.com/mapfiles/place_api/icons/v1/png_71/generic_business-71.png",
            "name": "Location voitures oujda. Hadyd Car",
            "photos": [
                {
                    "height": 952,
                    "photo_reference": "ATtYBwJOZ0GEsnQ6cn0c4AUAiPMCIBtZ0ST3LF6elRU2DlQhztIQKqXlAO7gRwvG8b8-J3bgDUIDUwswV8ck2f6sCt-RFG7g0BEY3hwzDxkylIVvVDY8RGAgWOYs5aYzwlmlZegk-a8DGHqWhdCdmmxPU2A6cQ6wbPEElhhjTut1awxKLgLZ",
                    "width": 720
                }
            ],
            "place_id": "ChIJobkPU2VleA0Rhl4USMQcydU",
            "rating": 5.0,
            "reference": "ChIJobkPU2VleA0Rhl4USMQcydU",
            "scope": "MEANZ TEST",
            "types": [
                "car_rental",
                "point_of_interest",
                "establishment"
            ],
            "user_ratings_total": 1,
            "vicinity": "N° 86, 2éme Étage, Appt N° 3 Rue de Fes, Oujda, Morocco ",
            "opening_hours": {
                "open_now": true
            }
        },
        {
            "business_status": "OPERATIONAL",
            "geometry": {
                "location": {
                    "lat": 34.6842852,
                    "lng": -1.917456
                },
                "viewport": {
                    "northeast": {
                        "lat": 34.68566237989272,
                        "lng": -1.916084020107278
                    },
                    "southwest": {
                        "lat": 34.68296272010728,
                        "lng": -1.918783679892723
                    }
                }
            },
            "icon": "https://maps.gstatic.com/mapfiles/place_api/icons/v1/png_71/generic_business-71.png",
            "name": "Location de Voiture Oujda Mistral car - oujda",
            "photos": [
                {
                    "height": 338,
                    "photo_reference": "ATtYBwJvmoNFxjtuAu2J3UUWdU4ncJPuhqeBHLnVNd6nElRiCI21UhWTCpUWELs4orKttP1qcOWi-oFf4vTXFSovesEIDG1GiWzFXY544a85wJZSpWDszuIWt1uXNdubi6K37jFqHOcFsoepbD0NkPrFHbfPClY8_TGYry1tHT6uygoMYb3y",
                    "width": 607
                }
            ],
            "place_id": "ChIJa4WVAaVkeA0RvrXiv6nZYj0",
            "rating": 5.0,
            "reference": "ChIJa4WVAaVkeA0RvrXiv6nZYj0",
            "scope": "MEANZ TEST",
            "types": [
                "car_rental",
                "point_of_interest",
                "establishment"
            ],
            "user_ratings_total": 1,
            "vicinity": "Oujda, Morocco ",
            "opening_hours": {
                "open_now": true
            }
        },
        {
            "business_status": "OPERATIONAL",
            "geometry": {
                "location": {
                    "lat": 34.6810423,
                    "lng": -1.917533
                },
                "viewport": {
                    "northeast": {
                        "lat": 34.68239207989272,
                        "lng": -1.916183120107278
                    },
                    "southwest": {
                        "lat": 34.67969242010728,
                        "lng": -1.918882779892722
                    }
                }
            },
            "icon": "https://maps.gstatic.com/mapfiles/place_api/icons/v1/png_71/generic_business-71.png",
            "name": "BM CAR",
            "photos": [
                {
                    "height": 1121,
                    "photo_reference": "ATtYBwKQ6g0ead7FjD6QcsP18feAsiAKXp2pqHLVhsPPRxpui62VvIkZYq-gMR_0tZxULMQ5Fd_AAV6J08vbIS1CkKjl6JY1-wQNJ8qnQE_GiI6HF6yE2GBAK5ObIECey786Wx1un4ZS8mjsPQGJukpm_b7Z6ol__O5BWRHvv-tnbFiIhTtv",
                    "width": 1992
                }
            ],
            "place_id": "ChIJr6GiER9leA0RXb-ryxEJvI8",
            "rating": 5.0,
            "reference": "ChIJr6GiER9leA0RXb-ryxEJvI8",
            "scope": "MEANZ TEST",
            "types": [
                "car_rental",
                "point_of_interest",
                "establishment"
            ],
            "user_ratings_total": 1,
            "vicinity": "2éme étage, place Hassan II.69 BD med V 2éme étage-Oujda, Oujda 60000, Morocco ",
            "opening_hours": {
                "open_now": true
            }
        },
        {
            "business_status": "OPERATIONAL",
            "geometry": {
                "location": {
                    "lat": 34.78716989999999,
                    "lng": -1.9401488
                },
                "viewport": {
                    "northeast": {
                        "lat": 34.78851972989271,
                        "lng": -1.938798970107278
                    },
                    "southwest": {
                        "lat": 34.78582007010727,
                        "lng": -1.941498629892722
                    }
                }
            },
            "icon": "https://maps.gstatic.com/mapfiles/place_api/icons/v1/png_71/generic_business-71.png",
            "name": "Sixt Oujda Angads Aéroport",
            "photos": [
                {
                    "height": 608,
                    "photo_reference": "ATtYBwJ_9OEG06fM3LL1t2TzsJGF2k0d4h72CksFvNsT_oySUtifEk1RBuEWU2KBdbz5eyC9j91tHM9ZAmy3GB1OYYqe7fb2QDHxqZZof8JZ5oLz2CytwFD_3ViGl1Vo9Vw79m0jxB-H1sxKypmhWZZFlrBLt6p_ZSNOLX5g5QmEZMpBXm-m",
                    "width": 1080
                }
            ],
            "place_id": "ChIJmwzNC6VneA0RVgvJE1phhtk",
            "rating": 5.0,
            "reference": "ChIJmwzNC6VneA0RVgvJE1phhtk",
            "scope": "MEANZ TEST",
            "types": [
                "car_rental",
                "point_of_interest",
                "establishment"
            ],
            "user_ratings_total": 9,
            "vicinity": "Aéroport Les Angades, Oujda 60023, Morocco ",
            "opening_hours": {
                "open_now": true
            }
        },
        {
            "business_status": "OPERATIONAL",
            "geometry": {
                "location": {
                    "lat": 34.9252056,
                    "lng": -2.3306429
                },
                "viewport": {
                    "northeast": {
                        "lat": 34.92657172989272,
                        "lng": -2.329309870107278
                    },
                    "southwest": {
                        "lat": 34.92387207010728,
                        "lng": -2.332009529892723
                    }
                }
            },
            "icon": "https://maps.gstatic.com/mapfiles/place_api/icons/v1/png_71/generic_business-71.png",
            "name": "Fermess Car",
            "photos": [
                {
                    "height": 1411,
                    "photo_reference": "ATtYBwKEid15h4cufx6FRgq9bNyzlvDzrr0QMJC0DjrGYxfVkZ6QwV5L2BQUMpIGwhcL6am3BGJtHf156REaTtBd1E4FELCwSNSkIxFNUTw16wGGTmtIRin4rhF4p8IJsnxBu6KbMiv7YiWj57Iwv0zdfKv1bGV3jI3BAC6wfl8NDdw1FXGT",
                    "width": 2048
                }
            ],
            "place_id": "ChIJ-wLeGGMjeA0RDht0MQNIur0",
            "rating": 3.7,
            "reference": "ChIJ-wLeGGMjeA0RDht0MQNIur0",
            "scope": "MEANZ TEST",
            "types": [
                "car_rental",
                "point_of_interest",
                "establishment"
            ],
            "user_ratings_total": 6,
            "vicinity": "20، 47 Rue du 20 Août, Berkane 60300, Morocco ",
            "opening_hours": {
                "open_now": true
            }
        },
        {
            "business_status": "OPERATIONAL",
            "geometry": {
                "location": {
                    "lat": 34.7866951,
                    "lng": -1.9411264
                },
                "viewport": {
                    "northeast": {
                        "lat": 34.78801112989272,
                        "lng": -1.939766720107278
                    },
                    "southwest": {
                        "lat": 34.78531147010727,
                        "lng": -1.942466379892722
                    }
                }
            },
            "icon": "https://maps.gstatic.com/mapfiles/place_api/icons/v1/png_71/generic_business-71.png",
            "name": "Europcar",
            "photos": null,
            "place_id": "ChIJ02ANwPFneA0RKYcoo054ebQ",
            "rating": 5.0,
            "reference": "ChIJ02ANwPFneA0RKYcoo054ebQ",
            "scope": "MEANZ TEST",
            "types": [
                "car_rental",
                "point_of_interest",
                "establishment"
            ],
            "user_ratings_total": 1,
            "vicinity": "Morocco ",
            "opening_hours": null
        },
        {
            "business_status": "OPERATIONAL",
            "geometry": {
                "location": {
                    "lat": 34.6763674,
                    "lng": -1.9406306
                },
                "viewport": {
                    "northeast": {
                        "lat": 34.67770182989272,
                        "lng": -1.939219820107277
                    },
                    "southwest": {
                        "lat": 34.67500217010728,
                        "lng": -1.941919479892722
                    }
                }
            },
            "icon": "https://maps.gstatic.com/mapfiles/place_api/icons/v1/png_71/generic_business-71.png",
            "name": "car rental Oujda benroubicar",
            "photos": [
                {
                    "height": 780,
                    "photo_reference": "ATtYBwK7P0PeQy4jNSLn3ZrSDG7YFyRRDceQYuMYJFyZITIoXAw_yEpA2wUIpdcigzkhkXgbLlOIxhGjByJfBslGRTXZ6b9onDHRi_-TIJMmD6JNF3NaiRaFg26SICCq1k0WOY7NUbvxkRa7YjflCxBS5m35kDUF0K5WORTaugk6eCD3o6td",
                    "width": 1040
                }
            ],
            "place_id": "ChIJVa6UH9BkeA0RuQ3Lr55hx_I",
            "rating": 3.8,
            "reference": "ChIJVa6UH9BkeA0RuQ3Lr55hx_I",
            "scope": "MEANZ TEST",
            "types": [
                "car_rental",
                "point_of_interest",
                "establishment"
            ],
            "user_ratings_total": 16,
            "vicinity": "80 Boulevard Rahmouni Boualam, Oujda, Morocco ",
            "opening_hours": {
                "open_now": true
            }
        },
        {
            "business_status": "OPERATIONAL",
            "geometry": {
                "location": {
                    "lat": 34.7869633,
                    "lng": -1.9410426
                },
                "viewport": {
                    "northeast": {
                        "lat": 34.78814922989272,
                        "lng": -1.939704420107278
                    },
                    "southwest": {
                        "lat": 34.78544957010728,
                        "lng": -1.942404079892722
                    }
                }
            },
            "icon": "https://maps.gstatic.com/mapfiles/place_api/icons/v1/png_71/generic_business-71.png",
            "name": "Thrifty [Oujda Airport]",
            "photos": null,
            "place_id": "ChIJZzwM-NVneA0R_z-lMAjUnUI",
            "rating": 0.0,
            "reference": "ChIJZzwM-NVneA0R_z-lMAjUnUI",
            "scope": "MEANZ TEST",
            "types": [
                "car_rental",
                "point_of_interest",
                "establishment"
            ],
            "user_ratings_total": 0,
            "vicinity": "Aéroport Les Angades, Oujda 60000, Morocco ",
            "opening_hours": {
                "open_now": true
            }
        }
    ]
}