{
    "results": [
        {
            "business_status": "OPERATIONAL",
            "geometry": {
                "location": {
                    "lat": 33.8991535,
                    "lng": -5.5455248
                },
                "viewport": {
                    "northeast": {
                        "lat": 33.90048252989272,
                        "lng": -5.544152170107279
                    },
                    "southwest": {
                        "lat": 33.89778287010728,
                        "lng": -5.546851829892723
                    }
                }
            },
            "icon": "https://maps.gstatic.com/mapfiles/place_api/icons/v1/png_71/generic_business-71.png",
            "name": "Car Rental",
            "photos": null,
            "place_id": "ChIJn43Jyd5EoA0Rloc32xHIs0Q",
            "rating": 0.0,
            "reference": "ChIJn43Jyd5EoA0Rloc32xHIs0Q",
            "scope": "MEANZ TEST",
            "types": [
                "car_rental",
                "point_of_interest",
                "establishment"
            ],
            "user_ratings_total": 0,
            "vicinity": "Meknes, Morocco ",
            "opening_hours": null
        },
        {
            "business_status": "OPERATIONAL",
            "geometry": {
                "location": {
                    "lat": 33.858544,
                    "lng": -5.5691386
                },
                "viewport": {
                    "northeast": {
                        "lat": 33.86004557989272,
                        "lng": -5.567797570107277
                    },
                    "southwest": {
                        "lat": 33.85734592010728,
                        "lng": -5.570497229892721
                    }
                }
            },
            "icon": "https://maps.gstatic.com/mapfiles/place_api/icons/v1/png_71/generic_business-71.png",
            "name": "MEKNES CAR",
            "photos": [
                {
                    "height": 312,
                    "photo_reference": "ATtYBwLPNWH8BAmTKeNoHabg0WaZzoR7VXKlQ4ahZQLW5hKeX31w6kVjDA69AtqxrTyGnNva_wFQrq6UHaJ4pcSqqv5__zeCx0M12-5alpYz-NV7EN1RKhRlLLRrwXX4pGy2t1662oBI6CsgLPtjiVlxbymMnHEJhbtkXg0wghGLuIpKkeKK",
                    "width": 820
                }
            ],
            "place_id": "ChIJq-_Yc4tboA0RrrPC0Hm_Wbo",
            "rating": 0.0,
            "reference": "ChIJq-_Yc4tboA0RrrPC0Hm_Wbo",
            "scope": "MEANZ TEST",
            "types": [
                "car_rental",
                "point_of_interest",
                "establishment"
            ],
            "user_ratings_total": 0,
            "vicinity": "Residence Fath Al Moubine, N° 11 Ave Zitoune, Meknes 50000, Morocco ",
            "opening_hours": {
                "open_now": true
            }
        },
        {
            "business_status": "OPERATIONAL",
            "geometry": {
                "location": {
                    "lat": 33.868058,
                    "lng": -5.583689499999999
                },
                "viewport": {
                    "northeast": {
                        "lat": 33.86941387989271,
                        "lng": -5.582337120107279
                    },
                    "southwest": {
                        "lat": 33.86671422010727,
                        "lng": -5.585036779892723
                    }
                }
            },
            "icon": "https://maps.gstatic.com/mapfiles/place_api/icons/v1/png_71/generic_business-71.png",
            "name": "Riad Car Rent",
            "photos": [
                {
                    "height": 1740,
                    "photo_reference": "ATtYBwJpF_slk-_hs3AkgBW0jPYIzRXPKcUPjSTtuYbiHzrM6CrJ2m8ngaO92y3O1y9HZ1ADq6NDYgo5dqrT_0n29-xW7WxkQHmT5u8-tAvzMYwjmh0Ibgsznqr1b-PajtFA2LvgvIWHt5xdp6lfFFVk_UtENuplEys6LHr5RoEb97cFG0wa",
                    "width": 1080
                }
            ],
            "place_id": "ChIJIS0lleBboA0R1BfobjQUnwM",
            "rating": 0.0,
            "reference": "ChIJIS0lleBboA0R1BfobjQUnwM",
            "scope": "MEANZ TEST",
            "types": [
                "car_rental",
                "point_of_interest",
                "establishment"
            ],
            "user_ratings_total": 0,
            "vicinity": "IM D2 MAGASIN 5 EL MANSOUR, Meknes 50050, Morocco ",
            "opening_hours": {
                "open_now": true
            }
        },
        {
            "business_status": "OPERATIONAL",
            "geometry": {
                "location": {
                    "lat": 33.5238193,
                    "lng": -5.1212439
                },
                "viewport": {
                    "northeast": {
                        "lat": 33.52513527989272,
                        "lng": -5.119863770107278
                    },
                    "southwest": {
                        "lat": 33.52243562010728,
                        "lng": -5.122563429892722
                    }
                }
            },
            "icon": "https://maps.gstatic.com/mapfiles/place_api/icons/v1/png_71/generic_business-71.png",
            "name": "Sté Rahoui Location Auto",
            "photos": [
                {
                    "height": 2448,
                    "photo_reference": "ATtYBwJW01YjGXG6AInrgl83VcRNZQ7x54ITXhaGTUlecZTcZviNJOkhenB9hd_deiTcdoV9RbZ1Wd23rJSNuob5q9LQoSLDSyK8T7qJrdJk9svtgi58-QZq1_lTaCM9T5Fyu7Dnb3DJRmYkmYl-JPWc1942XycrIuq-_B7xHlJQAZopODOr",
                    "width": 3264
                }
            ],
            "place_id": "ChIJKzWaDWjXoQ0RusGrIFBbdwk",
            "rating": 4.0,
            "reference": "ChIJKzWaDWjXoQ0RusGrIFBbdwk",
            "scope": "MEANZ TEST",
            "types": [
                "car_rental",
                "point_of_interest",
                "establishment"
            ],
            "user_ratings_total": 13,
            "vicinity": "N°3 Résidence Amine Hay Biranzarane IFRANE، Bd Moulay Abdellah, Ifran 53000, Morocco ",
            "opening_hours": null
        },
        {
            "business_status": "OPERATIONAL",
            "geometry": {
                "location": {
                    "lat": 33.4451014,
                    "lng": -5.2238326
                },
                "viewport": {
                    "northeast": {
                        "lat": 33.44645457989272,
                        "lng": -5.222475120107279
                    },
                    "southwest": {
                        "lat": 33.44375492010728,
                        "lng": -5.225174779892723
                    }
                }
            },
            "icon": "https://maps.gstatic.com/mapfiles/place_api/icons/v1/png_71/generic_business-71.png",
            "name": "chellaf azrou cars",
            "photos": [
                {
                    "height": 507,
                    "photo_reference": "ATtYBwKXBj-JQ5Fia1wAWoU3Wqb7wuq48-in_yVMOnqnf1aMjOEd9P4USbqOEA8yi-LpfN_Pvz3zZFqrLh4Rgy_NFb0al_olxa4MlXZ1rh62tulDS3GFT9-Tyynr1NizOZkIbsWSEBtyaB0p_hEwxL5URTp_u8HVbfYBSHiQAIVhkS63ZC_G",
                    "width": 960
                }
            ],
            "place_id": "ChIJ1bsXYTTboQ0R18J-qURNZDk",
            "rating": 4.3,
            "reference": "ChIJ1bsXYTTboQ0R18J-qURNZDk",
            "scope": "MEANZ TEST",
            "types": [
                "car_rental",
                "point_of_interest",
                "establishment"
            ],
            "user_ratings_total": 6,
            "vicinity": "rue, Azrou, Morocco ",
            "opening_hours": {
                "open_now": true
            }
        },
        {
            "business_status": "OPERATIONAL",
            "geometry": {
                "location": {
                    "lat": 33.8665425,
                    "lng": -5.5399126
                },
                "viewport": {
                    "northeast": {
                        "lat": 33.86794072989272,
                        "lng": -5.538488220107278
                    },
                    "southwest": {
                        "lat": 33.86524107010727,
                        "lng": -5.541187879892722
                    }
                }
            },
            "icon": "https://maps.gstatic.com/mapfiles/place_api/icons/v1/png_71/generic_business-71.png",
            "name": "Tarik Essalam",
            "photos": [
                {
                    "height": 3120,
                    "photo_reference": "ATtYBwKEUV9R4hrIWr7wOLwyoVRDNJJt7X-IOGcuamQucxhEsdO4qi_cWNekRV-kRmwaVPIkS9nhy7S1VA-cUzoe4CDQySnJi7P1ffugnjpbVKBKkPrv18KqRU0cP3RiOjaToCD1tVCDT2oTbDkrbVfzW4KZ5Zc5YMjdR9oDJLYpjNAH1Uat",
                    "width": 4160
                }
            ],
            "place_id": "ChIJL87L7mlFoA0RGHlMoh2alWU",
            "rating": 3.8,
            "reference": "ChIJL87L7mlFoA0RGHlMoh2alWU",
            "scope": "MEANZ TEST",
            "types": [
                "car_rental",
                "point_of_interest",
                "establishment"
            ],
            "user_ratings_total": 26,
            "vicinity": "13, Meknes, Morocco ",
            "opening_hours": {
                "open_now": true
            }
        },
        {
            "business_status": "OPERATIONAL",
            "geometry": {
                "location": {
                    "lat": 33.8970347,
                    "lng": -5.5488854
                },
                "viewport": {
                    "northeast": {
                        "lat": 33.89836132989272,
                        "lng": -5.547618370107278
                    },
                    "southwest": {
                        "lat": 33.89566167010727,
                        "lng": -5.550318029892723
                    }
                }
            },
            "icon": "https://maps.gstatic.com/mapfiles/place_api/icons/v1/png_71/generic_business-71.png",
            "name": "Volubilis car - location de voiture meknes",
            "photos": [
                {
                    "height": 720,
                    "photo_reference": "ATtYBwKSVHzNA1mgX1wwhOLTMGwuC5CIVihaTBjJJfp58IApUz48UIJcIvisbwL9rFaGCuX4tJAZr69946QFd66bcoiCPpNSbDC47xD6ZyLQGsgEWmnO5dbby51sBa0tC11ZTVy8q98cVabbAkToSegG-LI2IXX0BY8DIA1cx1FwGazKrccU",
                    "width": 1280
                }
            ],
            "place_id": "ChIJI-QCn3RFoA0RELBbnfqPPp8",
            "rating": 5.0,
            "reference": "ChIJI-QCn3RFoA0RELBbnfqPPp8",
            "scope": "MEANZ TEST",
            "types": [
                "car_rental",
                "point_of_interest",
                "establishment"
            ],
            "user_ratings_total": 104,
            "vicinity": "Av idrissi passage mimousa VN، Meknes 50000, Morocco ",
            "opening_hours": {
                "open_now": true
            }
        },
        {
            "business_status": "OPERATIONAL",
            "geometry": {
                "location": {
                    "lat": 33.8944938,
                    "lng": -5.5810112
                },
                "viewport": {
                    "northeast": {
                        "lat": 33.89588157989272,
                        "lng": -5.579664570107278
                    },
                    "southwest": {
                        "lat": 33.89318192010727,
                        "lng": -5.582364229892722
                    }
                }
            },
            "icon": "https://maps.gstatic.com/mapfiles/place_api/icons/v1/png_71/generic_business-71.png",
            "name": "Bonne route car",
            "photos": null,
            "place_id": "ChIJgwL4ayBboA0RWQaPLFHWtFQ",
            "rating": 3.9,
            "reference": "ChIJgwL4ayBboA0RWQaPLFHWtFQ",
            "scope": "MEANZ TEST",
            "types": [
                "car_rental",
                "point_of_interest",
                "establishment"
            ],
            "user_ratings_total": 13,
            "vicinity": "Meknes, Morocco ",
            "opening_hours": {
                "open_now": true
            }
        },
        {
            "business_status": "OPERATIONAL",
            "geometry": {
                "location": {
                    "lat": 33.8996404,
                    "lng": -5.4738491
                },
                "viewport": {
                    "northeast": {
                        "lat": 33.90099787989273,
                        "lng": -5.472519120107278
                    },
                    "southwest": {
                        "lat": 33.89829822010728,
                        "lng": -5.475218779892722
                    }
                }
            },
            "icon": "https://maps.gstatic.com/mapfiles/place_api/icons/v1/png_71/generic_business-71.png",
            "name": "Mahi Car SARL",
            "photos": [
                {
                    "height": 492,
                    "photo_reference": "ATtYBwKeH-Ag6di2wYijyKsAO6GEN_YyQH0AZ7IteMSs5XfrjB9YwZfReDZYMGgbMyBvEIE50lWGI9_E_EsST1-1gNc5KpULGh_RB1fPmc2MDqe2AUUIC5U3DpgIglFWGJUXUkO2MpPok1_zb_Q8FxM6afueODIP0xl1q2hUaLXNk-fL4t3p",
                    "width": 1125
                }
            ],
            "place_id": "ChIJJw0Xni5EoA0R7WU4uOwvG5c",
            "rating": 4.9,
            "reference": "ChIJJw0Xni5EoA0R7WU4uOwvG5c",
            "scope": "MEANZ TEST",
            "types": [
                "car_rental",
                "point_of_interest",
                "establishment"
            ],
            "user_ratings_total": 9,
            "vicinity": "Meknes, Morocco ",
            "opening_hours": {
                "open_now": true
            }
        },
        {
            "business_status": "OPERATIONAL",
            "geometry": {
                "location": {
                    "lat": 33.941739,
                    "lng": -5.208404
                },
                "viewport": {
                    "northeast": {
                        "lat": 33.94306767989273,
                        "lng": -5.207009870107278
                    },
                    "southwest": {
                        "lat": 33.94036802010728,
                        "lng": -5.209709529892722
                    }
                }
            },
            "icon": "https://maps.gstatic.com/mapfiles/place_api/icons/v1/png_71/generic_business-71.png",
            "name": "STE SASA CAR",
            "photos": null,
            "place_id": "ChIJV0n_37wkoA0R1JrlUr18uGk",
            "rating": 5.0,
            "reference": "ChIJV0n_37wkoA0R1JrlUr18uGk",
            "scope": "MEANZ TEST",
            "types": [
                "car_rental",
                "point_of_interest",
                "establishment"
            ],
            "user_ratings_total": 1,
            "vicinity": "Ain Taoujdate, Morocco ",
            "opening_hours": null
        },
        {
            "business_status": "OPERATIONAL",
            "geometry": {
                "location": {
                    "lat": 33.9417948,
                    "lng": -5.2067682
                },
                "viewport": {
                    "northeast": {
                        "lat": 33.94316242989272,
                        "lng": -5.205411470107278
                    },
                    "southwest": {
                        "lat": 33.94046277010728,
                        "lng": -5.208111129892722
                    }
                }
            },
            "icon": "https://maps.gstatic.com/mapfiles/place_api/icons/v1/png_71/generic_business-71.png",
            "name": "Kayak Cars",
            "photos": [
                {
                    "height": 406,
                    "photo_reference": "ATtYBwIo1QUUW25UNZEtOoWbXYJ4DXMgDoeZW9nUGpUZbqqBcz_S7oQbIX78rNxi3-m6XbUQ7CtozoFDKIFZ15bOWc-N6XzBLPi9vHP0yNuMayxa-tkRagX5Qquj1jkF0iMTDBLhgifMcD4-Cj-IaODOp-jKl6SfEdPz9ebz60WEA1fHzdh_",
                    "width": 720
                }
            ],
            "place_id": "ChIJ55PugGMloA0R3inGZw7twWc",
            "rating": 4.7,
            "reference": "ChIJ55PugGMloA0R3inGZw7twWc",
            "scope": "MEANZ TEST",
            "types": [
                "car_rental",
                "point_of_interest",
                "establishment"
            ],
            "user_ratings_total": 61,
            "vicinity": "10 Hay Al Qods, Ain Taoujdate 51100, Morocco ",
            "opening_hours": {
                "open_now": true
            }
        },
        {
            "business_status": "OPERATIONAL",
            "geometry": {
                "location": {
                    "lat": 33.8965718,
                    "lng": -5.5468256
                },
                "viewport": {
                    "northeast": {
                        "lat": 33.89795912989273,
                        "lng": -5.545461370107279
                    },
                    "southwest": {
                        "lat": 33.89525947010728,
                        "lng": -5.548161029892722
                    }
                }
            },
            "icon": "https://maps.gstatic.com/mapfiles/place_api/icons/v1/png_71/generic_business-71.png",
            "name": "Danub Cars: Location longue durée de voiture Meknès",
            "photos": null,
            "place_id": "ChIJd3akljRFoA0RYfYfI6rvQCw",
            "rating": 3.0,
            "reference": "ChIJd3akljRFoA0RYfYfI6rvQCw",
            "scope": "MEANZ TEST",
            "types": [
                "car_rental",
                "point_of_interest",
                "establishment"
            ],
            "user_ratings_total": 2,
            "vicinity": "36 Avenue Idriss 2 appartement N°5 2eme Etage VN, Meknes 50000, Morocco ",
            "opening_hours": null
        },
        {
            "business_status": "OPERATIONAL",
            "geometry": {
                "location": {
                    "lat": 33.8661878,
                    "lng": -5.576410699999999
                },
                "viewport": {
                    "northeast": {
                        "lat": 33.86753837989272,
                        "lng": -5.575076520107278
                    },
                    "southwest": {
                        "lat": 33.86483872010728,
                        "lng": -5.577776179892722
                    }
                }
            },
            "icon": "https://maps.gstatic.com/mapfiles/place_api/icons/v1/png_71/generic_business-71.png",
            "name": "RIZANA CAR",
            "photos": null,
            "place_id": "ChIJaV0CXLlaoA0RvMYB66sC4j0",
            "rating": 3.0,
            "reference": "ChIJaV0CXLlaoA0RvMYB66sC4j0",
            "scope": "MEANZ TEST",
            "types": [
                "car_rental",
                "point_of_interest",
                "establishment"
            ],
            "user_ratings_total": 4,
            "vicinity": "Meknes 50050, Morocco ",
            "opening_hours": {
                "open_now": true
            }
        },
        {
            "business_status": "OPERATIONAL",
            "geometry": {
                "location": {
                    "lat": 33.860834,
                    "lng": -5.5686088
                },
                "viewport": {
                    "northeast": {
                        "lat": 33.86217957989271,
                        "lng": -5.567254670107278
                    },
                    "southwest": {
                        "lat": 33.85947992010727,
                        "lng": -5.569954329892722
                    }
                }
            },
            "icon": "https://maps.gstatic.com/mapfiles/place_api/icons/v1/png_71/generic_business-71.png",
            "name": "HIBISCUS CAR",
            "photos": [
                {
                    "height": 1600,
                    "photo_reference": "ATtYBwJfoXyGDbdDdRfdRJYLrY2AYf5bXcYm7BLk5HNMxKhcyyAm7LHWpOp-0WNAXO4MjtBrn-dNwfO73GjE8ts8ge41flhDNzMKJSSgUne-sGh3pMdZV-HScHYQwHzCFjM4XpPROIWfzUrli_j5XoynJm-C8_X_AYPj0WEMtqdD0VvQhpxe",
                    "width": 1600
                }
            ],
            "place_id": "ChIJpbT1DYBboA0RWYtqdqiL2mk",
            "rating": 5.0,
            "reference": "ChIJpbT1DYBboA0RWYtqdqiL2mk",
            "scope": "MEANZ TEST",
            "types": [
                "car_rental",
                "point_of_interest",
                "establishment"
            ],
            "user_ratings_total": 3,
            "vicinity": "TRANCHE B C18 RIYADE AZAYTOUNE MARJANE، Meknes 50000, Morocco ",
            "opening_hours": {
                "open_now": true
            }
        },
        {
            "business_status": "OPERATIONAL",
            "geometry": {
                "location": {
                    "lat": 33.897951,
                    "lng": -5.547198
                },
                "viewport": {
                    "northeast": {
                        "lat": 33.89927777989273,
                        "lng": -5.545906720107279
                    },
                    "southwest": {
                        "lat": 33.89657812010729,
                        "lng": -5.548606379892723
                    }
                }
            },
            "icon": "https://maps.gstatic.com/mapfiles/place_api/icons/v1/png_71/generic_business-71.png",
            "name": "MAALI CAR",
            "photos": null,
            "place_id": "ChIJK4RhKNlEoA0Rr93DmDCvPoE",
            "rating": 2.3,
            "reference": "ChIJK4RhKNlEoA0Rr93DmDCvPoE",
            "scope": "MEANZ TEST",
            "types": [
                "car_rental",
                "point_of_interest",
                "establishment"
            ],
            "user_ratings_total": 4,
            "vicinity": "N4 rue menton VN، Meknes 50000, Morocco ",
            "opening_hours": {
                "open_now": null
            }
        },
        {
            "business_status": "OPERATIONAL",
            "geometry": {
                "location": {
                    "lat": 33.931775,
                    "lng": -4.9835761
                },
                "viewport": {
                    "northeast": {
                        "lat": 33.93290647989272,
                        "lng": -4.982232070107278
                    },
                    "southwest": {
                        "lat": 33.93020682010728,
                        "lng": -4.984931729892723
                    }
                }
            },
            "icon": "https://maps.gstatic.com/mapfiles/place_api/icons/v1/png_71/generic_business-71.png",
            "name": "Surprice Car Rentals Fes",
            "photos": null,
            "place_id": "ChIJoTgJbdiJnw0RlwofIh1tZOg",
            "rating": 5.0,
            "reference": "ChIJoTgJbdiJnw0RlwofIh1tZOg",
            "scope": "MEANZ TEST",
            "types": [
                "car_rental",
                "point_of_interest",
                "establishment"
            ],
            "user_ratings_total": 2,
            "vicinity": "2 etage, Oulad tayeb oulia route principal Immouzzer, Fes 30023, Morocco ",
            "opening_hours": {
                "open_now": true
            }
        },
        {
            "business_status": "OPERATIONAL",
            "geometry": {
                "location": {
                    "lat": 34.04251,
                    "lng": -5.001774
                },
                "viewport": {
                    "northeast": {
                        "lat": 34.04387707989272,
                        "lng": -5.000410370107279
                    },
                    "southwest": {
                        "lat": 34.04117742010728,
                        "lng": -5.003110029892722
                    }
                }
            },
            "icon": "https://maps.gstatic.com/mapfiles/place_api/icons/v1/png_71/generic_business-71.png",
            "name": "Hertz Car Rental",
            "photos": [
                {
                    "height": 720,
                    "photo_reference": "ATtYBwL67umlOIxjoufQjblTqKSbasuhRZYsCT3noZ5mWPGqDbUL4PyaHUrpo9AI6w_TlKv52TDDQcnX3e6faBeeLg2ka-5PSaydSK0wn7wea8jTNo8qgn4fKMEwZCPTkRLAfRuipTRAqDLw7O7za4LlGRto7zVjfE0_QxbE8S6Qd5fvBxek",
                    "width": 720
                }
            ],
            "place_id": "ChIJY_AJOzeLnw0RMfO5TYcrnuA",
            "rating": 2.5,
            "reference": "ChIJY_AJOzeLnw0RMfO5TYcrnuA",
            "scope": "MEANZ TEST",
            "types": [
                "car_rental",
                "point_of_interest",
                "establishment"
            ],
            "user_ratings_total": 17,
            "vicinity": "Kissariat de la Foire, Ave Lalla Meryem, Fès 30050, Morocco ",
            "opening_hours": {
                "open_now": true
            }
        },
        {
            "business_status": "OPERATIONAL",
            "geometry": {
                "location": {
                    "lat": 34.012888,
                    "lng": -4.974728
                },
                "viewport": {
                    "northeast": {
                        "lat": 34.01425387989272,
                        "lng": -4.973364070107278
                    },
                    "southwest": {
                        "lat": 34.01155422010727,
                        "lng": -4.976063729892722
                    }
                }
            },
            "icon": "https://maps.gstatic.com/mapfiles/place_api/icons/v1/png_71/generic_business-71.png",
            "name": "BARCELO S CAR",
            "photos": [
                {
                    "height": 3024,
                    "photo_reference": "ATtYBwKkrmY3C6S-_9LYi0TlTcsCnXK_w9znr097V_6463CfuROg9NzEl0wIL7_8JOuHod_O_l3ARDsPFY5gV8jiXrxK6fWrW_dC3TSqZuZ3gatagk8aC-t5Lly04y-r4Hrc0FTNhkO9f0opCfMz0ea-SbFumvfodySC685sGpzVqNhwqpZn",
                    "width": 4032
                }
            ],
            "place_id": "ChIJLwzMkIGMnw0Ra9KODXX7bj4",
            "rating": 5.0,
            "reference": "ChIJLwzMkIGMnw0Ra9KODXX7bj4",
            "scope": "MEANZ TEST",
            "types": [
                "car_rental",
                "point_of_interest",
                "establishment"
            ],
            "user_ratings_total": 5,
            "vicinity": "Avenue La Marche Verte, Fès, Maroc، Fes, Morocco ",
            "opening_hours": {
                "open_now": true
            }
        },
        {
            "business_status": "OPERATIONAL",
            "geometry": {
                "location": {
                    "lat": 34.034115,
                    "lng": -5.013348
                },
                "viewport": {
                    "northeast": {
                        "lat": 34.03529827989272,
                        "lng": -5.012219820107277
                    },
                    "southwest": {
                        "lat": 34.03259862010728,
                        "lng": -5.014919479892721
                    }
                }
            },
            "icon": "https://maps.gstatic.com/mapfiles/place_api/icons/v1/png_71/generic_business-71.png",
            "name": "Thrifty Car Rental",
            "photos": [
                {
                    "height": 720,
                    "photo_reference": "ATtYBwKXnnmtSJxmP1Dw1cKCDsAFs6v2SO7f1olHWfNSpdyF86YXChfJJuhCZ-R9h_tJN6ecwkR8fGJ4P3IgmYaz76jD38R5TPVDdFZfWBaLNCChaq47nRnIB3F67OtKasmxEkcCJD0_2E9xZ9ySXvthkJLRITssmYgImMjlmcz1e0QZZmXC",
                    "width": 720
                }
            ],
            "place_id": "ChIJwwlXCxqLnw0RI9wyMfpVZe4",
            "rating": 0.0,
            "reference": "ChIJwwlXCxqLnw0RI9wyMfpVZe4",
            "scope": "MEANZ TEST",
            "types": [
                "car_rental",
                "point_of_interest",
                "establishment"
            ],
            "user_ratings_total": 0,
            "vicinity": "NO 1 KISSARIAT DE LA FOIRE, Fes, Morocco ",
            "opening_hours": {
                "open_now": true
            }
        },
        {
            "business_status": "OPERATIONAL",
            "geometry": {
                "location": {
                    "lat": 34.0083947,
                    "lng": -5.0159896
                },
                "viewport": {
                    "northeast": {
                        "lat": 34.00971632989273,
                        "lng": -5.014649070107278
                    },
                    "southwest": {
                        "lat": 34.00701667010728,
                        "lng": -5.017348729892722
                    }
                }
            },
            "icon": "https://maps.gstatic.com/mapfiles/place_api/icons/v1/png_71/generic_business-71.png",
            "name": "HISPANO CAR RENTAL",
            "photos": [
                {
                    "height": 1280,
                    "photo_reference": "ATtYBwLrycpCj2PMAU8NeQclpBj_fMD37peHKtvA_zE2GCtfJDJt4Pi7HZGsr78f4uXc24JxyK_EEc1q1B2hUnrp2N66G7IQhI5SqpwzKkeGyeT4Dy_GJ-CCmTev2gCq1wAfJP7cRgCpvMb898eCX_Qgp4CUrvQq5YAEUonMyEzbqSKI_nDV",
                    "width": 720
                }
            ],
            "place_id": "ChIJZSnWre6Lnw0RgojevCUq4wM",
            "rating": 5.0,
            "reference": "ChIJZSnWre6Lnw0RgojevCUq4wM",
            "scope": "MEANZ TEST",
            "types": [
                "car_rental",
                "point_of_interest",
                "establishment"
            ],
            "user_ratings_total": 2,
            "vicinity": "RDC N309 Lotissement karaouyen, Fes 30050, Morocco ",
            "opening_hours": {
                "open_now": true
            }
        }
    ]
}