{
    "results": [
        {
            "business_status": "OPERATIONAL",
            "geometry": {
                "location": {
                    "lat": 33.9534651,
                    "lng": -4.9943211
                },
                "viewport": {
                    "northeast": {
                        "lat": 33.95479133029149,
                        "lng": -4.992937269708498
                    },
                    "southwest": {
                        "lat": 33.9520933697085,
                        "lng": -4.995635230291502
                    }
                }
            },
            "icon": "https://maps.gstatic.com/mapfiles/place_api/icons/v1/png_71/generic_business-71.png",
            "name": "24 Car",
            "photos": [
                {
                    "height": 960,
                    "photo_reference": "ATtYBwKlrAGt_XrHX1FDhpy9k6fA4qJUT0NRQEh1WqR_UToYpyhtYvjvUekb4IGE07WXD-vA9fhp_u-SuprUQPwRGlaXUNzC13FF9Lcf5L7Jnoz2AK_t_ZTDUBWTe2r-wOUkvcvGBbtcGl-6GCwuDYCUfUU_IaljLdbKYXmznS5bjwWvCKlu",
                    "width": 1280
                }
            ],
            "place_id": "ChIJr7Ck51yJnw0RG-EzUyIj4qk",
            "rating": 4.0,
            "reference": "ChIJr7Ck51yJnw0RG-EzUyIj4qk",
            "scope": "MEANZ TEST",
            "types": [
                "car_rental",
                "point_of_interest",
                "establishment"
            ],
            "user_ratings_total": 1,
            "vicinity": "2émé etage, n°4, Oulad Tayeb, Haute, Fès",
            "opening_hours": {
                "open_now": false
            }
        },
        {
            "business_status": "OPERATIONAL",
            "geometry": {
                "location": {
                    "lat": 34.0031013,
                    "lng": -5.0085644
                },
                "viewport": {
                    "northeast": {
                        "lat": 34.0044317302915,
                        "lng": -5.007206569708497
                    },
                    "southwest": {
                        "lat": 34.0017337697085,
                        "lng": -5.009904530291502
                    }
                }
            },
            "icon": "https://maps.gstatic.com/mapfiles/place_api/icons/v1/png_71/generic_business-71.png",
            "name": "74 Rentcar",
            "photos": [
                {
                    "height": 720,
                    "photo_reference": "ATtYBwI9y41EZh_GrWwOMiQduJ3QhduCatS6c4Nd47ije3iCg6g-J4qrCQJKLbu3-7oi3QMW7xLF1VfKVwrmxBWZdvEL3vSZdr3NFdNuI0t5Wm5v0xdNGfbI2l8lcLbvcGDaSGcUOEZAJ2mhhRlwHYCrGC652QpysUmK_M72XVFZtJcXNJs-",
                    "width": 960
                }
            ],
            "place_id": "ChIJgVY0afuLnw0ReAitDn4xB9o",
            "rating": 5.0,
            "reference": "ChIJgVY0afuLnw0ReAitDn4xB9o",
            "scope": "MEANZ TEST",
            "types": [
                "car_rental",
                "point_of_interest",
                "establishment"
            ],
            "user_ratings_total": 24,
            "vicinity": "Fes",
            "opening_hours": {
                "open_now": true
            }
        },
        {
            "business_status": "OPERATIONAL",
            "geometry": {
                "location": {
                    "lat": 34.05646249999999,
                    "lng": -5.0306329
                },
                "viewport": {
                    "northeast": {
                        "lat": 34.0578075802915,
                        "lng": -5.029282569708498
                    },
                    "southwest": {
                        "lat": 34.0551096197085,
                        "lng": -5.031980530291502
                    }
                }
            },
            "icon": "https://maps.gstatic.com/mapfiles/place_api/icons/v1/png_71/generic_business-71.png",
            "name": "A Côté De BMCE Et CAFE AHL FES",
            "photos": null,
            "place_id": "ChIJtRL7hTH1nw0RJTbMZo1j_n0",
            "rating": 3.5,
            "reference": "ChIJtRL7hTH1nw0RJTbMZo1j_n0",
            "scope": "MEANZ TEST",
            "types": [
                "car_rental",
                "point_of_interest",
                "establishment"
            ],
            "user_ratings_total": 2,
            "vicinity": "Fes",
            "opening_hours": null
        },
        {
            "business_status": "OPERATIONAL",
            "geometry": {
                "location": {
                    "lat": 34.00667360000001,
                    "lng": -4.9688652
                },
                "viewport": {
                    "northeast": {
                        "lat": 34.0080286802915,
                        "lng": -4.967504119708499
                    },
                    "southwest": {
                        "lat": 34.0053307197085,
                        "lng": -4.970202080291504
                    }
                }
            },
            "icon": "https://maps.gstatic.com/mapfiles/place_api/icons/v1/png_71/generic_business-71.png",
            "name": "ABYM CAR",
            "photos": null,
            "place_id": "ChIJWzJvtQCNnw0RI4m3gXA2B2s",
            "rating": 5.0,
            "reference": "ChIJWzJvtQCNnw0RI4m3gXA2B2s",
            "scope": "MEANZ TEST",
            "types": [
                "car_rental",
                "point_of_interest",
                "establishment"
            ],
            "user_ratings_total": 5,
            "vicinity": "512, lot wafae 4, mag 42, rte sefrou, Fès",
            "opening_hours": {
                "open_now": true
            }
        },
        {
            "business_status": "OPERATIONAL",
            "geometry": {
                "location": {
                    "lat": 34.03586619999999,
                    "lng": -4.9960551
                },
                "viewport": {
                    "northeast": {
                        "lat": 34.0372158802915,
                        "lng": -4.994681319708498
                    },
                    "southwest": {
                        "lat": 34.0345179197085,
                        "lng": -4.997379280291502
                    }
                }
            },
            "icon": "https://maps.gstatic.com/mapfiles/place_api/icons/v1/png_71/generic_business-71.png",
            "name": "AIRCAR",
            "photos": null,
            "place_id": "ChIJPdNqzWGLnw0RzIVx70bBdVY",
            "rating": null,
            "reference": "ChIJPdNqzWGLnw0RzIVx70bBdVY",
            "scope": "MEANZ TEST",
            "types": [
                "car_rental",
                "point_of_interest",
                "establishment"
            ],
            "user_ratings_total": null,
            "vicinity": "64 Avenue Mohamed Slaoui, Fès",
            "opening_hours": {
                "open_now": false
            }
        },
        {
            "business_status": "OPERATIONAL",
            "geometry": {
                "location": {
                    "lat": 33.9305978,
                    "lng": -4.9822321
                },
                "viewport": {
                    "northeast": {
                        "lat": 33.9320534302915,
                        "lng": -4.980879169708499
                    },
                    "southwest": {
                        "lat": 33.9293554697085,
                        "lng": -4.983577130291502
                    }
                }
            },
            "icon": "https://maps.gstatic.com/mapfiles/place_api/icons/v1/png_71/generic_business-71.png",
            "name": "AIRFLY CAR FEZ",
            "photos": [
                {
                    "height": 576,
                    "photo_reference": "ATtYBwI51g20hADI_0eQijVLHQvMHttbY2vUn1OcUGgYP1SXLGjx9IiSTYeElvqHAvoC8qQzgTzKDrLaPGWGocHE7e2vL9UH9XBA8HldmmzpE8DhyNImqOlvBGK5oX96DhuQvKF3iEGEp_a2BT9n4S7bPAgSvR6jJXE9soOoxDrKE7gxghw7",
                    "width": 1022
                }
            ],
            "place_id": "ChIJ3W7fPcSJnw0Rqb-u2SZNiDw",
            "rating": 4.6,
            "reference": "ChIJ3W7fPcSJnw0Rqb-u2SZNiDw",
            "scope": "MEANZ TEST",
            "types": [
                "car_rental",
                "point_of_interest",
                "establishment"
            ],
            "user_ratings_total": 109,
            "vicinity": "Fes Aéroport, Fès",
            "opening_hours": {
                "open_now": true
            }
        },
        {
            "business_status": "OPERATIONAL",
            "geometry": {
                "location": {
                    "lat": 34.00985519999999,
                    "lng": -4.9772167
                },
                "viewport": {
                    "northeast": {
                        "lat": 34.0112052802915,
                        "lng": -4.975868569708497
                    },
                    "southwest": {
                        "lat": 34.0085073197085,
                        "lng": -4.978566530291502
                    }
                }
            },
            "icon": "https://maps.gstatic.com/mapfiles/place_api/icons/v1/png_71/generic_business-71.png",
            "name": "ALCAR",
            "photos": null,
            "place_id": "ChIJE3nAKgeLnw0R5ESBBc81XX8",
            "rating": null,
            "reference": "ChIJE3nAKgeLnw0R5ESBBc81XX8",
            "scope": "MEANZ TEST",
            "types": [
                "car_rental",
                "point_of_interest",
                "establishment"
            ],
            "user_ratings_total": null,
            "vicinity": "N 30 Rue Toreno Hay Al Ouafae, 2 Route de Sefrou, Fes",
            "opening_hours": {
                "open_now": true
            }
        },
        {
            "business_status": "OPERATIONAL",
            "geometry": {
                "location": {
                    "lat": 34.0383629,
                    "lng": -4.997726499999999
                },
                "viewport": {
                    "northeast": {
                        "lat": 34.0397042802915,
                        "lng": -4.996354619708497
                    },
                    "southwest": {
                        "lat": 34.0370063197085,
                        "lng": -4.999052580291502
                    }
                }
            },
            "icon": "https://maps.gstatic.com/mapfiles/place_api/icons/v1/png_71/generic_business-71.png",
            "name": "AMB Car",
            "photos": null,
            "place_id": "ChIJY3KSIcuLnw0RjDcezzSdAgg",
            "rating": null,
            "reference": "ChIJY3KSIcuLnw0RjDcezzSdAgg",
            "scope": "MEANZ TEST",
            "types": [
                "car_rental",
                "point_of_interest",
                "establishment"
            ],
            "user_ratings_total": null,
            "vicinity": "N8, Fes",
            "opening_hours": null
        },
        {
            "business_status": "OPERATIONAL",
            "geometry": {
                "location": {
                    "lat": 34.0133573,
                    "lng": -4.980929899999999
                },
                "viewport": {
                    "northeast": {
                        "lat": 34.01470653029149,
                        "lng": -4.979580519708497
                    },
                    "southwest": {
                        "lat": 34.0120085697085,
                        "lng": -4.982278480291502
                    }
                }
            },
            "icon": "https://maps.gstatic.com/mapfiles/place_api/icons/v1/png_71/generic_business-71.png",
            "name": "AUTO-BOUABAN",
            "photos": [
                {
                    "height": 440,
                    "photo_reference": "ATtYBwKRGYl3c06LFxLzlTFOQE1vwDcPQrpzhllWUofRcWR9sUQxxCDe6PQSQ8s50VMtE_74IhC17YTF9Ldms9Nd809sjeUzAeoyngN_9Vdsan2mG2GYJifMKDoUi7Mxq0z-8M4DVPyjTTMf0AhposKQcWwqOw1qm3tZ2Y1YdP2nh_T03tsJ",
                    "width": 677
                }
            ],
            "place_id": "ChIJZ5Q7XemLnw0RW6LM5uky-2o",
            "rating": 4.0,
            "reference": "ChIJZ5Q7XemLnw0RW6LM5uky-2o",
            "scope": "MEANZ TEST",
            "types": [
                "car_rental",
                "point_of_interest",
                "establishment"
            ],
            "user_ratings_total": 1,
            "vicinity": "N° 1 AVENUE AL KHALIL HAY AL OUAFAE, 1 Route de Sefrou, Fès",
            "opening_hours": null
        },
        {
            "business_status": "OPERATIONAL",
            "geometry": {
                "location": {
                    "lat": 34.0190122,
                    "lng": -5.0199529
                },
                "viewport": {
                    "northeast": {
                        "lat": 34.02032433029149,
                        "lng": -5.018659669708498
                    },
                    "southwest": {
                        "lat": 34.01762636970849,
                        "lng": -5.021357630291503
                    }
                }
            },
            "icon": "https://maps.gstatic.com/mapfiles/place_api/icons/v1/png_71/generic_business-71.png",
            "name": "AUTOLAFITTO",
            "photos": [
                {
                    "height": 404,
                    "photo_reference": "ATtYBwLHHu97YuJGVQZQ7r6tjGXCiJO4i1o6Q73b-1MsDFoATvNR6xdGMAKZ2OIKX-1zyFhlE_7DGbutPfYVErwz7USmEhck0R8mCpJcaUnjOG2Mvg3A4xjvPg1zxV6HWwaEhKpADNt9UNKk-ZWoSdv4e1THQkgRwnuTWfh7DYGp2m8csTGL",
                    "width": 719
                }
            ],
            "place_id": "ChIJ07ZKp0WLnw0RGlYAkBUXe8I",
            "rating": 5.0,
            "reference": "ChIJ07ZKp0WLnw0RGlYAkBUXe8I",
            "scope": "MEANZ TEST",
            "types": [
                "car_rental",
                "point_of_interest",
                "establishment"
            ],
            "user_ratings_total": 2,
            "vicinity": "Imm. E N 11 Rce OMRA Rte, Avenue Ain S'men, Fes",
            "opening_hours": {
                "open_now": false
            }
        },
        {
            "business_status": "OPERATIONAL",
            "geometry": {
                "location": {
                    "lat": 33.931759,
                    "lng": -4.983031399999999
                },
                "viewport": {
                    "northeast": {
                        "lat": 33.93289653029149,
                        "lng": -4.981673169708497
                    },
                    "southwest": {
                        "lat": 33.93019856970849,
                        "lng": -4.984371130291501
                    }
                }
            },
            "icon": "https://maps.gstatic.com/mapfiles/place_api/icons/v1/png_71/generic_business-71.png",
            "name": "AVIS",
            "photos": null,
            "place_id": "ChIJLwnhrr6Jnw0RxWDh3MDIKhw",
            "rating": null,
            "reference": "ChIJLwnhrr6Jnw0RxWDh3MDIKhw",
            "scope": "MEANZ TEST",
            "types": [
                "car_rental",
                "point_of_interest",
                "establishment"
            ],
            "user_ratings_total": null,
            "vicinity": "Saïss",
            "opening_hours": null
        },
        {
            "business_status": "OPERATIONAL",
            "geometry": {
                "location": {
                    "lat": 34.0406383,
                    "lng": -4.9967231
                },
                "viewport": {
                    "northeast": {
                        "lat": 34.0419916302915,
                        "lng": -4.995313619708498
                    },
                    "southwest": {
                        "lat": 34.0392936697085,
                        "lng": -4.998011580291503
                    }
                }
            },
            "icon": "https://maps.gstatic.com/mapfiles/place_api/icons/v1/png_71/generic_business-71.png",
            "name": "AVIS - Location de Voiture Fès Centre Ville",
            "photos": [
                {
                    "height": 1920,
                    "photo_reference": "ATtYBwIZThx6Eydedkle7Gz1jVJoLnv6-Hs_BKFyS63Xa-LEkQZFc7V_IbLuxjkOFxe3Hig72a3YGASrN0qMW4HzwtCi0-xcRue1MrQUYxcNBDWlvi4uRSok-uCA2lhk8FtZexNNkw4RZmO6kE2ae5NkLOsRtpKhx3IETDb2c0qI23My5eZf",
                    "width": 2560
                }
            ],
            "place_id": "ChIJ_cQN4keLnw0R13JnIHCQV-4",
            "rating": 4.6,
            "reference": "ChIJ_cQN4keLnw0R13JnIHCQV-4",
            "scope": "MEANZ TEST",
            "types": [
                "car_rental",
                "point_of_interest",
                "establishment"
            ],
            "user_ratings_total": 207,
            "vicinity": "50 Boulevard Chefchaouni, Fès",
            "opening_hours": {
                "open_now": false
            }
        },
        {
            "business_status": "OPERATIONAL",
            "geometry": {
                "location": {
                    "lat": 33.9305578,
                    "lng": -4.9824738
                },
                "viewport": {
                    "northeast": {
                        "lat": 33.9320367302915,
                        "lng": -4.981118969708497
                    },
                    "southwest": {
                        "lat": 33.9293387697085,
                        "lng": -4.983816930291502
                    }
                }
            },
            "icon": "https://maps.gstatic.com/mapfiles/place_api/icons/v1/png_71/generic_business-71.png",
            "name": "AVIS® - Location de Voiture Fès Aéroport",
            "photos": [
                {
                    "height": 356,
                    "photo_reference": "ATtYBwJOIi8Iyg02J5xkamRTN5N4HDZFE7fxxMUBGpoDkDUsfNrZpmynDqmtqy5uyigphle8y-Hzuj7ChR17x9SgRnR2yigt9kH-gpHatiEuPHBH1NXzLp2k8wUOVGgfIoeBVY7fe5B7AX14x-aHWVJbyi03xh1JX0Hz8KZ3l6JJGwXK0n4M",
                    "width": 742
                }
            ],
            "place_id": "ChIJI4GG-DGJnw0RibjB96hTQ1Y",
            "rating": 4.9,
            "reference": "ChIJI4GG-DGJnw0RibjB96hTQ1Y",
            "scope": "MEANZ TEST",
            "types": [
                "car_rental",
                "point_of_interest",
                "establishment"
            ],
            "user_ratings_total": 241,
            "vicinity": "Aéroport Fez, سايس",
            "opening_hours": {
                "open_now": false
            }
        },
        {
            "business_status": "OPERATIONAL",
            "geometry": {
                "location": {
                    "lat": 34.0420616,
                    "lng": -4.998322700000001
                },
                "viewport": {
                    "northeast": {
                        "lat": 34.0434945302915,
                        "lng": -4.997133969708497
                    },
                    "southwest": {
                        "lat": 34.0407965697085,
                        "lng": -4.999831930291502
                    }
                }
            },
            "icon": "https://maps.gstatic.com/mapfiles/place_api/icons/v1/png_71/generic_business-71.png",
            "name": "Abid Cars Fes Location de voiture",
            "photos": [
                {
                    "height": 288,
                    "photo_reference": "ATtYBwIJmXWs4GVHaT3FUEZK5_SJ4VZHlb2g0gTdkTFBLiUDzZbg5jZ8XV9zLNfB0xL0eon-E2Kirm1YGQcl02ieNnjf2uVbBgPGkF8Kp_e8PyXb3x9w_J0UV8HP3x8KbjvsgQcZggVJfdQEzsJgLDmlSsUqfIjWuvX3cRZ8M4i4JzXVJsQ6",
                    "width": 1200
                }
            ],
            "place_id": "ChIJnUXgwzeLnw0RJgF2j1ydou8",
            "rating": 4.7,
            "reference": "ChIJnUXgwzeLnw0RJgF2j1ydou8",
            "scope": "MEANZ TEST",
            "types": [
                "car_rental",
                "point_of_interest",
                "establishment"
            ],
            "user_ratings_total": 80,
            "vicinity": "41 Avenue Hassan II, Fès",
            "opening_hours": {
                "open_now": false
            }
        },
        {
            "business_status": "OPERATIONAL",
            "geometry": {
                "location": {
                    "lat": 34.00428129999999,
                    "lng": -4.9752543
                },
                "viewport": {
                    "northeast": {
                        "lat": 34.0056132302915,
                        "lng": -4.973937269708498
                    },
                    "southwest": {
                        "lat": 34.0029152697085,
                        "lng": -4.976635230291502
                    }
                }
            },
            "icon": "https://maps.gstatic.com/mapfiles/place_api/icons/v1/png_71/generic_business-71.png",
            "name": "Agence 2y Location",
            "photos": [
                {
                    "height": 720,
                    "photo_reference": "ATtYBwK2XJonGDJ2M2YcwoVn5-4o2KQfmCRqqp05o9DmJpQrqcNJqYg1PFk7zBMxXJs0Cj1YZQz9suLARj-XUJQCmNXS3cnAyT1sgCD5V8S7wlE4eYxW4avuGSjmFQYMmnmeoyg6KHibl3hRR8y2VuKtFqIzCqBm3n12Ho5DiOQt0-cYYIj5",
                    "width": 1280
                }
            ],
            "place_id": "ChIJWTX3hvWNnw0Rx4XFffxBUT4",
            "rating": 5.0,
            "reference": "ChIJWTX3hvWNnw0Rx4XFffxBUT4",
            "scope": "MEANZ TEST",
            "types": [
                "car_rental",
                "point_of_interest",
                "establishment"
            ],
            "user_ratings_total": 1,
            "vicinity": "56 rue toufah Narjis rte de sefrou, Fès",
            "opening_hours": {
                "open_now": false
            }
        },
        {
            "business_status": "OPERATIONAL",
            "geometry": {
                "location": {
                    "lat": 34.01301770000001,
                    "lng": -4.972895199999999
                },
                "viewport": {
                    "northeast": {
                        "lat": 34.01433838029151,
                        "lng": -4.971525069708497
                    },
                    "southwest": {
                        "lat": 34.01164041970851,
                        "lng": -4.974223030291501
                    }
                }
            },
            "icon": "https://maps.gstatic.com/mapfiles/place_api/icons/v1/png_71/generic_business-71.png",
            "name": "Agence 2y location",
            "photos": [
                {
                    "height": 467,
                    "photo_reference": "ATtYBwKe7-2SSRSaUeTdAH6noEfsFnlg42tiX_pgJdKCkPp8l1NkeQ6oSRUS84eQSDw4gXbPolQshwpaSIm-WQ8DDxbAyGJQQtr_f6TD2iquPvYMwPMwB0GnpvWX4pSW7pXdk3kegsB3n0wp7MsWCO6UVM9elfcMM6ULIr7q7HaH_pnrwMLG",
                    "width": 622
                }
            ],
            "place_id": "ChIJza0nciyNnw0RgnHp3pBzEqQ",
            "rating": 5.0,
            "reference": "ChIJza0nciyNnw0RgnHp3pBzEqQ",
            "scope": "MEANZ TEST",
            "types": [
                "car_rental",
                "point_of_interest",
                "establishment"
            ],
            "user_ratings_total": 2,
            "vicinity": "56 rue toufah Narjis, Route de Sefrou, Fès",
            "opening_hours": null
        },
        {
            "business_status": "OPERATIONAL",
            "geometry": {
                "location": {
                    "lat": 34.0066754,
                    "lng": -4.9732181
                },
                "viewport": {
                    "northeast": {
                        "lat": 34.0080598802915,
                        "lng": -4.971897419708498
                    },
                    "southwest": {
                        "lat": 34.00536191970851,
                        "lng": -4.974595380291503
                    }
                }
            },
            "icon": "https://maps.gstatic.com/mapfiles/place_api/icons/v1/png_71/generic_business-71.png",
            "name": "Aguiri Car - Location Voiture Fes",
            "photos": [
                {
                    "height": 1280,
                    "photo_reference": "ATtYBwLrZowMC03QaDvkgJ_E3WnG6jl-IFDXP6-Ur1nSFFv4Fad9jy2f0wk1FWPrsfy_S9BROAWP32cD02XkMKUKQqQJcONlVe2Cv-opHDVd0iTZgQw_TDK01CbyyLBvaVmO5CPd70FvFDPFsP_NDRQH-GYvkiCzGP8I-23lwJqyQpdGZinn",
                    "width": 894
                }
            ],
            "place_id": "ChIJ2Zp1HnmNnw0RoifiZhhCAD4",
            "rating": null,
            "reference": "ChIJ2Zp1HnmNnw0RoifiZhhCAD4",
            "scope": "MEANZ TEST",
            "types": [
                "car_rental",
                "point_of_interest",
                "establishment"
            ],
            "user_ratings_total": null,
            "vicinity": "N°294 Av Damam Lots Wafae 4 en face de la ferme Chraibi, Route de Sefrou, Fès",
            "opening_hours": {
                "open_now": true
            }
        },
        {
            "business_status": "OPERATIONAL",
            "geometry": {
                "location": {
                    "lat": 33.9316575,
                    "lng": -4.984679199999999
                },
                "viewport": {
                    "northeast": {
                        "lat": 33.9328497302915,
                        "lng": -4.983331969708496
                    },
                    "southwest": {
                        "lat": 33.9301517697085,
                        "lng": -4.986029930291501
                    }
                }
            },
            "icon": "https://maps.gstatic.com/mapfiles/place_api/icons/v1/png_71/generic_business-71.png",
            "name": "Alkafi cars Fes",
            "photos": [
                {
                    "height": 768,
                    "photo_reference": "ATtYBwJi_-FDtYDuZyx14JcBTl68TRfu8GtjsOb_ScGE4mmTLFIFrvl-GRHbKtQF3wA4NMXPucsMuU9lq7ZCXCxYWiNt1k706i2e0uTNN6kHgV2UEynMc3y9G2gUUVNkbWi6cOw7SCnlP-5iNibuTjgHdWlEM5H5_GVzM4P4JzD58tt763VL",
                    "width": 768
                }
            ],
            "place_id": "ChIJbax5KM2Jnw0ReUWWiMQXhjs",
            "rating": null,
            "reference": "ChIJbax5KM2Jnw0ReUWWiMQXhjs",
            "scope": "MEANZ TEST",
            "types": [
                "car_rental",
                "point_of_interest",
                "establishment"
            ],
            "user_ratings_total": null,
            "vicinity": "N 1etage 2 , Oulad tayeb oulia route principal, Route Imouzzer, Fès",
            "opening_hours": {
                "open_now": true
            }
        },
        {
            "business_status": "OPERATIONAL",
            "geometry": {
                "location": {
                    "lat": 34.0345818,
                    "lng": -4.997919599999999
                },
                "viewport": {
                    "northeast": {
                        "lat": 34.0358692302915,
                        "lng": -4.996618769708498
                    },
                    "southwest": {
                        "lat": 34.0331712697085,
                        "lng": -4.999316730291502
                    }
                }
            },
            "icon": "https://maps.gstatic.com/mapfiles/place_api/icons/v1/png_71/generic_business-71.png",
            "name": "Amirak car",
            "photos": null,
            "place_id": "ChIJ4_WwqEGLnw0RlsDBxwla9sM",
            "rating": null,
            "reference": "ChIJ4_WwqEGLnw0RlsDBxwla9sM",
            "scope": "MEANZ TEST",
            "types": [
                "car_rental",
                "point_of_interest",
                "establishment"
            ],
            "user_ratings_total": null,
            "vicinity": "Fès",
            "opening_hours": null
        },
        {
            "business_status": "OPERATIONAL",
            "geometry": {
                "location": {
                    "lat": 34.0025461,
                    "lng": -5.0088423
                },
                "viewport": {
                    "northeast": {
                        "lat": 34.0038729302915,
                        "lng": -5.007495069708497
                    },
                    "southwest": {
                        "lat": 34.00117496970851,
                        "lng": -5.010193030291502
                    }
                }
            },
            "icon": "https://maps.gstatic.com/mapfiles/place_api/icons/v1/png_71/generic_business-71.png",
            "name": "Atlace Palace Rent Car location de voitures",
            "photos": [
                {
                    "height": 678,
                    "photo_reference": "ATtYBwI9ky8g-qEw-K62AsxiELCgj5WprUrD1WsFNYnh-WRNtvX2sxmP0Mi5lduPAPY22GNL0XieeJQPA7xnEfA8rx_w7gYCmhr8aFsI7zKEyQYl1yZd4Ha-vXrVAQbvbs_VvFYAEn0UXC4FV8XUJw1GTrkCPxVQilLvLHpyMLGu2DF6P3Sg",
                    "width": 1207
                }
            ],
            "place_id": "ChIJYfkgX76Lnw0RmbN_e9Fvgro",
            "rating": 5.0,
            "reference": "ChIJYfkgX76Lnw0RmbN_e9Fvgro",
            "scope": "MEANZ TEST",
            "types": [
                "car_rental",
                "point_of_interest",
                "establishment"
            ],
            "user_ratings_total": 4,
            "vicinity": "Route Ain chkef , lot riad yasmine, Fès",
            "opening_hours": {
                "open_now": true
            }
        },
        {
            "business_status": "OPERATIONAL",
            "geometry": {
                "location": {
                    "lat": 33.99999749999999,
                    "lng": -5.0117992
                },
                "viewport": {
                    "northeast": {
                        "lat": 34.0013514302915,
                        "lng": -5.010459069708497
                    },
                    "southwest": {
                        "lat": 33.9986534697085,
                        "lng": -5.013157030291501
                    }
                }
            },
            "icon": "https://maps.gstatic.com/mapfiles/place_api/icons/v1/png_71/generic_business-71.png",
            "name": "Auto DAKNI",
            "photos": null,
            "place_id": "ChIJDdf0uPiLnw0Rk28bXdK006o",
            "rating": 5.0,
            "reference": "ChIJDdf0uPiLnw0Rk28bXdK006o",
            "scope": "MEANZ TEST",
            "types": [
                "car_rental",
                "point_of_interest",
                "establishment"
            ],
            "user_ratings_total": 2,
            "vicinity": "lotissement riad yasmine rte ain chkef،, Fès",
            "opening_hours": null
        },
        {
            "business_status": "OPERATIONAL",
            "geometry": {
                "location": {
                    "lat": 34.00514450000001,
                    "lng": -5.0111606
                },
                "viewport": {
                    "northeast": {
                        "lat": 34.00648013029149,
                        "lng": -5.009806869708497
                    },
                    "southwest": {
                        "lat": 34.00378216970849,
                        "lng": -5.012504830291502
                    }
                }
            },
            "icon": "https://maps.gstatic.com/mapfiles/place_api/icons/v1/png_71/generic_business-71.png",
            "name": "Auto Lakhder",
            "photos": null,
            "place_id": "ChIJT5qKuamLnw0Rl8y7KSsu1K0",
            "rating": 5.0,
            "reference": "ChIJT5qKuamLnw0Rl8y7KSsu1K0",
            "scope": "MEANZ TEST",
            "types": [
                "car_rental",
                "point_of_interest",
                "establishment"
            ],
            "user_ratings_total": 1,
            "vicinity": "Fes",
            "opening_hours": {
                "open_now": true
            }
        },
        {
            "business_status": "OPERATIONAL",
            "geometry": {
                "location": {
                    "lat": 33.9303054,
                    "lng": -4.980767399999999
                },
                "viewport": {
                    "northeast": {
                        "lat": 33.9317685302915,
                        "lng": -4.979398519708496
                    },
                    "southwest": {
                        "lat": 33.9290705697085,
                        "lng": -4.982096480291501
                    }
                }
            },
            "icon": "https://maps.gstatic.com/mapfiles/place_api/icons/v1/png_71/generic_business-71.png",
            "name": "Autovermietung Aircar Car Rental",
            "photos": [
                {
                    "height": 3024,
                    "photo_reference": "ATtYBwISaHdpD6jwGtk-J-vp1oh0XE5ANnO7iZn6OlX0gM-F5vNbZUom-imknH54xcqwI04aYwDnQIIOBbRqggnSSoydejmbTqUUsaxs8Rx_BDW7_KqW9iEKrkTl1dURDEaB-B7mP2RwoXoXjtMhaK0gBR-G7IV0OhOGhwJQ8K9_lIaxJ4XX",
                    "width": 4032
                }
            ],
            "place_id": "ChIJPXNH9_qJnw0RwxyzEdEZoZM",
            "rating": 1.0,
            "reference": "ChIJPXNH9_qJnw0RwxyzEdEZoZM",
            "scope": "MEANZ TEST",
            "types": [
                "car_rental",
                "point_of_interest",
                "establishment"
            ],
            "user_ratings_total": 1,
            "vicinity": "Pavillon Royal, Saïss",
            "opening_hours": null
        },
        {
            "business_status": "OPERATIONAL",
            "geometry": {
                "location": {
                    "lat": 34.02479889999999,
                    "lng": -5.035302499999999
                },
                "viewport": {
                    "northeast": {
                        "lat": 34.02615798029149,
                        "lng": -5.033960969708498
                    },
                    "southwest": {
                        "lat": 34.0234600197085,
                        "lng": -5.036658930291503
                    }
                }
            },
            "icon": "https://maps.gstatic.com/mapfiles/place_api/icons/v1/png_71/generic_business-71.png",
            "name": "Ayach Car",
            "photos": [
                {
                    "height": 500,
                    "photo_reference": "ATtYBwKQhWA1PDQbH6ry3q0-MgVnuBEAhMITLtEMMeZSVTpinrSwYxVNjyO6DRZU6JVQYA5xnmjOzfXEtMj6wXfEOFKI32R-ZAeCwglJAGNDW1ywa4-nKGQdA9nPBnh1GlR89rgO6MDp6GyL_1IGomSoIwE_9vMLfedOF4flOla6RDSqV629",
                    "width": 500
                }
            ],
            "place_id": "ChIJx943i5aLnw0RlfNpjuTPJzg",
            "rating": 5.0,
            "reference": "ChIJx943i5aLnw0RlfNpjuTPJzg",
            "scope": "MEANZ TEST",
            "types": [
                "car_rental",
                "point_of_interest",
                "establishment"
            ],
            "user_ratings_total": 2,
            "vicinity": "Zouagha, Fes",
            "opening_hours": null
        },
        {
            "business_status": "OPERATIONAL",
            "geometry": {
                "location": {
                    "lat": 34.0544461,
                    "lng": -5.0367711
                },
                "viewport": {
                    "northeast": {
                        "lat": 34.0558237802915,
                        "lng": -5.035431519708498
                    },
                    "southwest": {
                        "lat": 34.05312581970851,
                        "lng": -5.038129480291503
                    }
                }
            },
            "icon": "https://maps.gstatic.com/mapfiles/place_api/icons/v1/png_71/generic_business-71.png",
            "name": "Aymocar",
            "photos": [
                {
                    "height": 4160,
                    "photo_reference": "ATtYBwK4fKZOmer0pTWbc3H1c4L5wF5w0L5P3h0uCLt4MTisKHLGzU6hnA09A0AlF9lZCsshWmf6Gwonwfb2O--1-30QzYEW2JfPOlfl8KbrcaDJV9cdIhTBoY1bKA6-aWI7NpE5fSWfrfgqKi76U_PSOH5LzCcwEvwtpJqo2oiC5jE97-Tj",
                    "width": 3120
                }
            ],
            "place_id": "ChIJszZw9ZT1nw0R9W2R0apxJcc",
            "rating": null,
            "reference": "ChIJszZw9ZT1nw0R9W2R0apxJcc",
            "scope": "MEANZ TEST",
            "types": [
                "car_rental",
                "point_of_interest",
                "establishment"
            ],
            "user_ratings_total": null,
            "vicinity": "Fes",
            "opening_hours": null
        },
        {
            "business_status": "OPERATIONAL",
            "geometry": {
                "location": {
                    "lat": 34.0075377,
                    "lng": -4.9681192
                },
                "viewport": {
                    "northeast": {
                        "lat": 34.0088844302915,
                        "lng": -4.966775419708497
                    },
                    "southwest": {
                        "lat": 34.0061864697085,
                        "lng": -4.969473380291502
                    }
                }
            },
            "icon": "https://maps.gstatic.com/mapfiles/place_api/icons/v1/png_71/generic_business-71.png",
            "name": "Ayoub4 rent car",
            "photos": [
                {
                    "height": 958,
                    "photo_reference": "ATtYBwI87NaugQEI7Jukb0mhzHAyQOpXKIRLZGw_3G_R1k3kvR2pQkmfuRGuXu0fBdXaPUjjoz_5PCRLMvXFC_JRGFeBA82dUszq2GdK1tVyJuZ-yR_vLzmcnjWSjZ94lKPn1tbqo4ExBXOtfZK3iNVVV1zNhN49r8z-fZx77-WMo9V2xHW0",
                    "width": 1280
                }
            ],
            "place_id": "ChIJ9UuWFqiNnw0RhK0HbXeyAk4",
            "rating": 5.0,
            "reference": "ChIJ9UuWFqiNnw0RhK0HbXeyAk4",
            "scope": "MEANZ TEST",
            "types": [
                "car_rental",
                "point_of_interest",
                "establishment"
            ],
            "user_ratings_total": 1,
            "vicinity": "Avenue el wafae, 4 Route de Sefrou, Fès",
            "opening_hours": {
                "open_now": true
            }
        },
        {
            "business_status": "OPERATIONAL",
            "geometry": {
                "location": {
                    "lat": 34.02274869999999,
                    "lng": -5.010505899999999
                },
                "viewport": {
                    "northeast": {
                        "lat": 34.0240802302915,
                        "lng": -5.009186519708498
                    },
                    "southwest": {
                        "lat": 34.0213822697085,
                        "lng": -5.011884480291502
                    }
                }
            },
            "icon": "https://maps.gstatic.com/mapfiles/place_api/icons/v1/png_71/generic_business-71.png",
            "name": "B2c car",
            "photos": [
                {
                    "height": 321,
                    "photo_reference": "ATtYBwKBfKbpWhrhHhluHemAK21XFcNmQcwZUXrd83xQt77WcSEYGaLvSASPysdy-j1eS8Blas3316FsqcJ-wOPGvA3Bcn9gBplUXjDLvUeRCjexTTgA9RlFZgb5zBnS_jFiIaGrY57dA6inkPe5-Dst2BULtlqKKbajA_d0w5rnd-YThWBE",
                    "width": 960
                }
            ],
            "place_id": "ChIJWxUP43KLnw0RkizFb1RHtyE",
            "rating": 5.0,
            "reference": "ChIJWxUP43KLnw0RkizFb1RHtyE",
            "scope": "MEANZ TEST",
            "types": [
                "car_rental",
                "point_of_interest",
                "establishment"
            ],
            "user_ratings_total": 2,
            "vicinity": "90 Kissariat Ennour Av Ibn Athir, Fès",
            "opening_hours": {
                "open_now": true
            }
        },
        {
            "business_status": "OPERATIONAL",
            "geometry": {
                "location": {
                    "lat": 34.012888,
                    "lng": -4.974728
                },
                "viewport": {
                    "northeast": {
                        "lat": 34.01425303029149,
                        "lng": -4.973364919708498
                    },
                    "southwest": {
                        "lat": 34.0115550697085,
                        "lng": -4.976062880291503
                    }
                }
            },
            "icon": "https://maps.gstatic.com/mapfiles/place_api/icons/v1/png_71/generic_business-71.png",
            "name": "BARCELO S CAR",
            "photos": [
                {
                    "height": 3024,
                    "photo_reference": "ATtYBwJ-wd0RuLUmt7bbZo0uiJtXtyioxClMa6eCIa2zMAGT3Yy55r8-HxXlU4BC0HsxwI6fU5cgHQq6_USL9Zj4-UYg9nZZUcyH0_5nPalKCgAbPexDXy4QHGVzoHcuSza7HBOgH8d4tz77kC5eyFhhbKnXyK4f7ZIPpwtKgnTgjdYQ_reZ",
                    "width": 4032
                }
            ],
            "place_id": "ChIJLwzMkIGMnw0Ra9KODXX7bj4",
            "rating": 5.0,
            "reference": "ChIJLwzMkIGMnw0Ra9KODXX7bj4",
            "scope": "MEANZ TEST",
            "types": [
                "car_rental",
                "point_of_interest",
                "establishment"
            ],
            "user_ratings_total": 5,
            "vicinity": "Avenue La Marche Verte, Fès, Maroc, Fes",
            "opening_hours": {
                "open_now": false
            }
        },
        {
            "business_status": "OPERATIONAL",
            "geometry": {
                "location": {
                    "lat": 34.0404666,
                    "lng": -4.9975284
                },
                "viewport": {
                    "northeast": {
                        "lat": 34.0417801302915,
                        "lng": -4.996171369708499
                    },
                    "southwest": {
                        "lat": 34.0390821697085,
                        "lng": -4.998869330291503
                    }
                }
            },
            "icon": "https://maps.gstatic.com/mapfiles/place_api/icons/v1/png_71/generic_business-71.png",
            "name": "BENLOC CAR",
            "photos": null,
            "place_id": "ChIJk_7HADiLnw0Rpd5iV1CPoko",
            "rating": null,
            "reference": "ChIJk_7HADiLnw0Rpd5iV1CPoko",
            "scope": "MEANZ TEST",
            "types": [
                "car_rental",
                "point_of_interest",
                "establishment"
            ],
            "user_ratings_total": null,
            "vicinity": "Rue Hassan Zegriti, Fès",
            "opening_hours": {
                "open_now": true
            }
        },
        {
            "business_status": "OPERATIONAL",
            "geometry": {
                "location": {
                    "lat": 34.02331400000001,
                    "lng": -5.013152399999999
                },
                "viewport": {
                    "northeast": {
                        "lat": 34.0246676302915,
                        "lng": -5.011816819708498
                    },
                    "southwest": {
                        "lat": 34.0219696697085,
                        "lng": -5.014514780291503
                    }
                }
            },
            "icon": "https://maps.gstatic.com/mapfiles/place_api/icons/v1/png_71/generic_business-71.png",
            "name": "BEST RENT A CAR",
            "photos": [
                {
                    "height": 774,
                    "photo_reference": "ATtYBwKtDxKmwuW88kzN6DkSTz3sMqLwnyftEmGqo2OXYjivuNucd_pLnYHh5eF9hclohBa53kDU8wYqbyxcWum1JjX_2-qsQU3gr1De45FBeiFwW3bns59e5FnPnIm1KYwmmPFuiM3G8Vh6mgSk6EWEYJ3cGIpQhnm7vC-wdK2OnDLqYBcR",
                    "width": 1032
                }
            ],
            "place_id": "ChIJJ3wndUiLnw0RKrMaljPGsR0",
            "rating": 5.0,
            "reference": "ChIJJ3wndUiLnw0RKrMaljPGsR0",
            "scope": "MEANZ TEST",
            "types": [
                "car_rental",
                "point_of_interest",
                "establishment"
            ],
            "user_ratings_total": 5,
            "vicinity": "N 10 LOTISSEMENT MERNISSI ROUTE, Avenue Ain S'men, Fes",
            "opening_hours": {
                "open_now": true
            }
        },
        {
            "business_status": "OPERATIONAL",
            "geometry": {
                "location": {
                    "lat": 34.0200985,
                    "lng": -5.0192697
                },
                "viewport": {
                    "northeast": {
                        "lat": 34.0214700802915,
                        "lng": -5.017903319708498
                    },
                    "southwest": {
                        "lat": 34.0187721197085,
                        "lng": -5.020601280291503
                    }
                }
            },
            "icon": "https://maps.gstatic.com/mapfiles/place_api/icons/v1/png_71/generic_business-71.png",
            "name": "BMD RENT A CAR",
            "photos": null,
            "place_id": "ChIJEXrh7nOLnw0RRwZtDcFYbzM",
            "rating": 5.0,
            "reference": "ChIJEXrh7nOLnw0RRwZtDcFYbzM",
            "scope": "MEANZ TEST",
            "types": [
                "car_rental",
                "point_of_interest",
                "establishment"
            ],
            "user_ratings_total": 2,
            "vicinity": "MAGASIN 8 RESIDENCE SALIMA IMM C RUE BAHNINI RTE, Avenue Ain S'men",
            "opening_hours": null
        },
        {
            "business_status": "OPERATIONAL",
            "geometry": {
                "location": {
                    "lat": 34.0609543,
                    "lng": -4.9833995
                },
                "viewport": {
                    "northeast": {
                        "lat": 34.06232608029151,
                        "lng": -4.982023019708498
                    },
                    "southwest": {
                        "lat": 34.05962811970851,
                        "lng": -4.984720980291502
                    }
                }
            },
            "icon": "https://maps.gstatic.com/mapfiles/place_api/icons/v1/png_71/generic_business-71.png",
            "name": "BenOmar Car",
            "photos": [
                {
                    "height": 3096,
                    "photo_reference": "ATtYBwIxcjhDTeIQHPP6SEvaB6b0FHv69OmkKlEyvn7V4YnC4ZgUOp0K68qKpYiJu9yaV-wo7dwRPU1_GRQpkbF8IZvz-NHT52Imx2tW8RRfjH-d50olWcZUQ9lHA6siFFdzVAKhQJa_GJmi73HIeLq3dlnFU1V1vkHHzmF-ZL0aD2Vi8AQ",
                    "width": 4128
                }
            ],
            "place_id": "ChIJ34OSHq_0nw0Rqfc-GAg6hQc",
            "rating": 5.0,
            "reference": "ChIJ34OSHq_0nw0Rqfc-GAg6hQc",
            "scope": "MEANZ TEST",
            "types": [
                "car_rental",
                "point_of_interest",
                "establishment"
            ],
            "user_ratings_total": 1,
            "vicinity": "Talaa, Fes",
            "opening_hours": {
                "open_now": false
            }
        },
        {
            "business_status": "OPERATIONAL",
            "geometry": {
                "location": {
                    "lat": 34.0380164,
                    "lng": -5.022294599999999
                },
                "viewport": {
                    "northeast": {
                        "lat": 34.03940363029149,
                        "lng": -5.020963969708496
                    },
                    "southwest": {
                        "lat": 34.03670566970849,
                        "lng": -5.0236619302915
                    }
                }
            },
            "icon": "https://maps.gstatic.com/mapfiles/place_api/icons/v1/png_71/generic_business-71.png",
            "name": "Bencheqroun Cars",
            "photos": null,
            "place_id": "ChIJu7BQhiyLnw0R57fvNLKYSmM",
            "rating": null,
            "reference": "ChIJu7BQhiyLnw0R57fvNLKYSmM",
            "scope": "MEANZ TEST",
            "types": [
                "car_rental",
                "point_of_interest",
                "establishment"
            ],
            "user_ratings_total": null,
            "vicinity": "37 rue el assmai, Fès",
            "opening_hours": {
                "open_now": false
            }
        },
        {
            "business_status": "OPERATIONAL",
            "geometry": {
                "location": {
                    "lat": 34.0396456,
                    "lng": -5.006001599999998
                },
                "viewport": {
                    "northeast": {
                        "lat": 34.04100993029149,
                        "lng": -5.004640669708498
                    },
                    "southwest": {
                        "lat": 34.0383119697085,
                        "lng": -5.007338630291502
                    }
                }
            },
            "icon": "https://maps.gstatic.com/mapfiles/place_api/icons/v1/png_71/generic_business-71.png",
            "name": "Brigui Car",
            "photos": null,
            "place_id": "ChIJ7df_RjqLnw0R5qJ_uGZOVr0",
            "rating": 5.0,
            "reference": "ChIJ7df_RjqLnw0R5qJ_uGZOVr0",
            "scope": "MEANZ TEST",
            "types": [
                "car_rental",
                "point_of_interest",
                "establishment"
            ],
            "user_ratings_total": 4,
            "vicinity": "Rue Abdelkrim Benjeloun Résid. Le Belvédère N°14 V.N Fes, Fès",
            "opening_hours": {
                "open_now": false
            }
        },
        {
            "business_status": "OPERATIONAL",
            "geometry": {
                "location": {
                    "lat": 33.9317815,
                    "lng": -4.982401400000001
                },
                "viewport": {
                    "northeast": {
                        "lat": 33.9331957302915,
                        "lng": -4.980916869708498
                    },
                    "southwest": {
                        "lat": 33.9304977697085,
                        "lng": -4.983614830291502
                    }
                }
            },
            "icon": "https://maps.gstatic.com/mapfiles/place_api/icons/v1/png_71/generic_business-71.png",
            "name": "Budget",
            "photos": null,
            "place_id": "ChIJXQeTow6Jnw0RBs-PeQukgbU",
            "rating": 1.5,
            "reference": "ChIJXQeTow6Jnw0RBs-PeQukgbU",
            "scope": "MEANZ TEST",
            "types": [
                "car_rental",
                "point_of_interest",
                "establishment"
            ],
            "user_ratings_total": 2,
            "vicinity": "Saïss",
            "opening_hours": null
        },
        {
            "business_status": "OPERATIONAL",
            "geometry": {
                "location": {
                    "lat": 34.02271309999999,
                    "lng": -5.01042
                },
                "viewport": {
                    "northeast": {
                        "lat": 34.0240284802915,
                        "lng": -5.009046969708497
                    },
                    "southwest": {
                        "lat": 34.0213305197085,
                        "lng": -5.011744930291502
                    }
                }
            },
            "icon": "https://maps.gstatic.com/mapfiles/place_api/icons/v1/png_71/generic_business-71.png",
            "name": "CAR4ALL",
            "photos": [
                {
                    "height": 435,
                    "photo_reference": "ATtYBwKP3RS_wadreZ5QE4A90KbSEpzJiTUeMBUCLcLxhi3ZPF7VRPzM2CJNeukTK15GHN0bLcwDBbxcZ1rnjJIT9hQp0H9qcCj-JYrzNt8PYeSqfSv6fd39xA8EW9QH1jgMM8NvvHwJSLhfd4vgNx-XYNFEmYRXH5ZlUDtRky7kW9OoyvhW",
                    "width": 848
                }
            ],
            "place_id": "ChIJObcvSDmLnw0RPDamTQkHGa8",
            "rating": 4.1,
            "reference": "ChIJObcvSDmLnw0RPDamTQkHGa8",
            "scope": "MEANZ TEST",
            "types": [
                "car_rental",
                "point_of_interest",
                "establishment"
            ],
            "user_ratings_total": 25,
            "vicinity": "Bureau N:91 Kissariat Ennour Essaada FES, Ibn El Atir Avenue, Fès",
            "opening_hours": {
                "open_now": true
            }
        },
        {
            "business_status": "OPERATIONAL",
            "geometry": {
                "location": {
                    "lat": 34.0221201,
                    "lng": -5.010680300000001
                },
                "viewport": {
                    "northeast": {
                        "lat": 34.02346678029149,
                        "lng": -5.009321419708498
                    },
                    "southwest": {
                        "lat": 34.0207688197085,
                        "lng": -5.012019380291502
                    }
                }
            },
            "icon": "https://maps.gstatic.com/mapfiles/place_api/icons/v1/png_71/generic_business-71.png",
            "name": "CITY-FESCAR",
            "photos": [
                {
                    "height": 1790,
                    "photo_reference": "ATtYBwIh_Km5-oMpCBODsfiKw5ZN_9jkM8nOv17OtCijOloiI1YjoxH9bzWDOF7MnsqjEOwFdEa1HdbJzSa4Folr5s_UhmcQbqa89061ln0N6Ggl5tEvT7sBziAkutZLnGmD2zJpIsVk02Ck-3Ig5lsE1AyFfMkFtBdQ0WeaM5MVKD5FSqge",
                    "width": 2955
                }
            ],
            "place_id": "ChIJHZrcBYuLnw0R_fvYacPna08",
            "rating": 1.0,
            "reference": "ChIJHZrcBYuLnw0R_fvYacPna08",
            "scope": "MEANZ TEST",
            "types": [
                "car_rental",
                "point_of_interest",
                "establishment"
            ],
            "user_ratings_total": 1,
            "vicinity": "N 3 bloc b2 lotissement annour, Ain chkf, Fes",
            "opening_hours": null
        },
        {
            "business_status": "OPERATIONAL",
            "geometry": {
                "location": {
                    "lat": 34.03182969999999,
                    "lng": -4.993243999999999
                },
                "viewport": {
                    "northeast": {
                        "lat": 34.0331856802915,
                        "lng": -4.991879869708497
                    },
                    "southwest": {
                        "lat": 34.0304877197085,
                        "lng": -4.994577830291502
                    }
                }
            },
            "icon": "https://maps.gstatic.com/mapfiles/place_api/icons/v1/png_71/generic_business-71.png",
            "name": "Car 4 rent",
            "photos": [
                {
                    "height": 960,
                    "photo_reference": "ATtYBwI4Xs7GeokVu3gS3iMXbDz0xQv7G-5OMnMg1mBuK_ThicT3nuyVVH-d87oVlQMnaCsPbmXJYvhHA8UR1K8B83WMl1He2oBq5FYT1BroqGtqG7mkDMtgQMcdOQyC60_gG6oiTGw88IzjAALErOKNIhyXU6KBOJpgpGqhu6P-7fdG6sWw",
                    "width": 1280
                }
            ],
            "place_id": "ChIJL2khRQSLnw0Rrl0txpxTvlY",
            "rating": 5.0,
            "reference": "ChIJL2khRQSLnw0Rrl0txpxTvlY",
            "scope": "MEANZ TEST",
            "types": [
                "car_rental",
                "point_of_interest",
                "establishment"
            ],
            "user_ratings_total": 5,
            "vicinity": "N 15 RDC angle rue joulane et Tanger atlas, Fès",
            "opening_hours": {
                "open_now": false
            }
        },
        {
            "business_status": "OPERATIONAL",
            "geometry": {
                "location": {
                    "lat": 34.0137293,
                    "lng": -4.981360199999999
                },
                "viewport": {
                    "northeast": {
                        "lat": 34.01503263029149,
                        "lng": -4.980015619708497
                    },
                    "southwest": {
                        "lat": 34.0123346697085,
                        "lng": -4.982713580291501
                    }
                }
            },
            "icon": "https://maps.gstatic.com/mapfiles/place_api/icons/v1/png_71/generic_business-71.png",
            "name": "Car Autos Mobil",
            "photos": null,
            "place_id": "ChIJ1U71AnyLnw0RjvDvVB8qxh0",
            "rating": null,
            "reference": "ChIJ1U71AnyLnw0RjvDvVB8qxh0",
            "scope": "MEANZ TEST",
            "types": [
                "car_rental",
                "point_of_interest",
                "establishment"
            ],
            "user_ratings_total": null,
            "vicinity": "Fes",
            "opening_hours": null
        },
        {
            "business_status": "OPERATIONAL",
            "geometry": {
                "location": {
                    "lat": 34.0402973,
                    "lng": -4.9893331
                },
                "viewport": {
                    "northeast": {
                        "lat": 34.0416352802915,
                        "lng": -4.987979269708497
                    },
                    "southwest": {
                        "lat": 34.0389373197085,
                        "lng": -4.990677230291501
                    }
                }
            },
            "icon": "https://maps.gstatic.com/mapfiles/place_api/icons/v1/png_71/generic_business-71.png",
            "name": "Car Del Mar",
            "photos": null,
            "place_id": "ChIJy3gzd0WLnw0R4Zp_cX1u8ek",
            "rating": 1.0,
            "reference": "ChIJy3gzd0WLnw0R4Zp_cX1u8ek",
            "scope": "MEANZ TEST",
            "types": [
                "car_rental",
                "point_of_interest",
                "establishment"
            ],
            "user_ratings_total": 1,
            "vicinity": "Avenue Mohammed es Slaoui, Fes",
            "opening_hours": null
        },
        {
            "business_status": "OPERATIONAL",
            "geometry": {
                "location": {
                    "lat": 34.0374925,
                    "lng": -5.0140402
                },
                "viewport": {
                    "northeast": {
                        "lat": 34.0388419802915,
                        "lng": -5.012719019708498
                    },
                    "southwest": {
                        "lat": 34.0361440197085,
                        "lng": -5.015416980291502
                    }
                }
            },
            "icon": "https://maps.gstatic.com/mapfiles/place_api/icons/v1/png_71/generic_business-71.png",
            "name": "Casanostra Cars",
            "photos": [
                {
                    "height": 1926,
                    "photo_reference": "ATtYBwI8lg8zmZW6CiK-fLpLtslq0H77aGXEEkfgiwesYGMODW9p27r4fP2hREYpA_qJXbC2JBR_dElnMEpnXiKX2a-1Kc-UPjvVlr73YGcjGVULJ6TYjUB-ahPFqr84XZeMDmAFeIPHBYC9Qk6VGidV4Sg8dpPJCwiZblr7DxRPyhUN0Asb",
                    "width": 2750
                }
            ],
            "place_id": "ChIJkV01XCaLnw0RKybhaNT66hQ",
            "rating": null,
            "reference": "ChIJkV01XCaLnw0RKybhaNT66hQ",
            "scope": "MEANZ TEST",
            "types": [
                "car_rental",
                "point_of_interest",
                "establishment"
            ],
            "user_ratings_total": null,
            "vicinity": "N 14 lot Bel Air, route Meknès Résidence Taiba, Dokkarat, Fès",
            "opening_hours": null
        },
        {
            "business_status": "OPERATIONAL",
            "geometry": {
                "location": {
                    "lat": 33.9317487,
                    "lng": -4.985029
                },
                "viewport": {
                    "northeast": {
                        "lat": 33.9328966302915,
                        "lng": -4.983682219708498
                    },
                    "southwest": {
                        "lat": 33.9301986697085,
                        "lng": -4.986380180291502
                    }
                }
            },
            "icon": "https://maps.gstatic.com/mapfiles/place_api/icons/v1/png_71/generic_business-71.png",
            "name": "Cerisa Car rent a car",
            "photos": [
                {
                    "height": 360,
                    "photo_reference": "ATtYBwKNWxGZqTWGPGcrhxSvRrZ4d31f07eF4hUW9su6YcXDTJAJ2OSlnzMZz-GtfueSkjgV9bxCmCj7JJswSjb2vG2lAi1aessDRv3aunX_eAEHsREXA5jpwg8ubITf-Vw0O6XGpsI1PTg8dH923wGxcjJhYQ0I9e1hUyf_yOV9CnmJn7d3",
                    "width": 480
                }
            ],
            "place_id": "ChIJv2nR-DGJnw0RmqjVp0vNujY",
            "rating": 4.3,
            "reference": "ChIJv2nR-DGJnw0RmqjVp0vNujY",
            "scope": "MEANZ TEST",
            "types": [
                "car_rental",
                "point_of_interest",
                "establishment"
            ],
            "user_ratings_total": 140,
            "vicinity": "aéroport fes sais, Fès",
            "opening_hours": {
                "open_now": true
            }
        },
        {
            "business_status": "OPERATIONAL",
            "geometry": {
                "location": {
                    "lat": 34.03738319999999,
                    "lng": -4.999820199999998
                },
                "viewport": {
                    "northeast": {
                        "lat": 34.03873273029149,
                        "lng": -4.998468719708498
                    },
                    "southwest": {
                        "lat": 34.03603476970849,
                        "lng": -5.001166680291502
                    }
                }
            },
            "icon": "https://maps.gstatic.com/mapfiles/place_api/icons/v1/png_71/generic_business-71.png",
            "name": "Cheap Auto Rental - Location Voiture Fes - كراء السيارات",
            "photos": [
                {
                    "height": 1181,
                    "photo_reference": "ATtYBwL1I9TOEIDcsdPePTOBorOBRD-bYpJUm447Gt6TlKQdS1Bp97_du48pE-2JqJz3GCBDsz8nx7iJqf464c8pM0st82mXBu3PXAu2HE-PkQ94aRsPWgCvau-tuoHQTcBTQiC-w6u771Zcg6VXfMBkori1AtA8T14dJ9z19JsUZYZ_0j76",
                    "width": 2953
                }
            ],
            "place_id": "ChIJCZ-f8RWLnw0RmZJ5TG0HDLY",
            "rating": 5.0,
            "reference": "ChIJCZ-f8RWLnw0RmZJ5TG0HDLY",
            "scope": "MEANZ TEST",
            "types": [
                "car_rental",
                "point_of_interest",
                "establishment"
            ],
            "user_ratings_total": 433,
            "vicinity": "cinéma astor, Bureau 207 – 2éme étage Bureaux NOUR Angle AV. Slaoui et Avenue Houcine Lkhaddar à Coté, Fes",
            "opening_hours": {
                "open_now": true
            }
        },
        {
            "business_status": "OPERATIONAL",
            "geometry": {
                "location": {
                    "lat": 33.9317232,
                    "lng": -4.9842955
                },
                "viewport": {
                    "northeast": {
                        "lat": 33.9328816302915,
                        "lng": -4.982947369708498
                    },
                    "southwest": {
                        "lat": 33.93018366970851,
                        "lng": -4.985645330291502
                    }
                }
            },
            "icon": "https://maps.gstatic.com/mapfiles/place_api/icons/v1/png_71/generic_business-71.png",
            "name": "Cheap Auto Rental | Location voiture aeroport fes | filiale à l'Aéroport de Fès Saïss",
            "photos": [
                {
                    "height": 1181,
                    "photo_reference": "ATtYBwLPuX1T-ENfw4gDuzkl9nx5tLiFPvZq5JGVtcTUvnycONgHeM10CSX8zuavWehhtdY6FELlg2awLcFZbWA4TCS3iSQPViRKw_6i_e_buuXpBhpsNu-saxhnPOaNTAOELP4t--WpXqca0xS271-7tylteMAIPynr0rlpq7ZOuX1oSBtP",
                    "width": 2953
                }
            ],
            "place_id": "ChIJhWHvQ3OJnw0Rp9MxCEFo7K4",
            "rating": 5.0,
            "reference": "ChIJhWHvQ3OJnw0Rp9MxCEFo7K4",
            "scope": "MEANZ TEST",
            "types": [
                "car_rental",
                "point_of_interest",
                "establishment"
            ],
            "user_ratings_total": 9,
            "vicinity": "parking Aéroport Fès Saïss , num 207, Fès",
            "opening_hours": {
                "open_now": true
            }
        },
        {
            "business_status": "OPERATIONAL",
            "geometry": {
                "location": {
                    "lat": 34.0563151,
                    "lng": -5.0354642
                },
                "viewport": {
                    "northeast": {
                        "lat": 34.0577066802915,
                        "lng": -5.034128619708497
                    },
                    "southwest": {
                        "lat": 34.0550087197085,
                        "lng": -5.036826580291502
                    }
                }
            },
            "icon": "https://maps.gstatic.com/mapfiles/place_api/icons/v1/png_71/generic_business-71.png",
            "name": "Convenient Car Rental",
            "photos": [
                {
                    "height": 720,
                    "photo_reference": "ATtYBwJNXQf8jAKjukjhNv22qwL-4asbE5S0st4o8pY4q_H7jrdTaiwes_3q382wB6CPeqbTOjNOWt_3bcbzwRilxeTFAC2KvfGIYtyLrQwiIKtNH6RwlPo0SgPzPy5I4L6l6ofawObMNmxlXQ2mzDUYhF0HWRWKHUCP1g65pxPe8MaYxn2s",
                    "width": 960
                }
            ],
            "place_id": "ChIJf-3i9NH1nw0RgNwJ4IWuXB4",
            "rating": null,
            "reference": "ChIJf-3i9NH1nw0RgNwJ4IWuXB4",
            "scope": "MEANZ TEST",
            "types": [
                "car_rental",
                "point_of_interest",
                "establishment"
            ],
            "user_ratings_total": null,
            "vicinity": "Rue 16 n 22 oued fes",
            "opening_hours": {
                "open_now": false
            }
        },
        {
            "business_status": "OPERATIONAL",
            "geometry": {
                "location": {
                    "lat": 34.0370279,
                    "lng": -4.999669799999999
                },
                "viewport": {
                    "northeast": {
                        "lat": 34.0384012302915,
                        "lng": -4.998296519708497
                    },
                    "southwest": {
                        "lat": 34.0357032697085,
                        "lng": -5.000994480291501
                    }
                }
            },
            "icon": "https://maps.gstatic.com/mapfiles/place_api/icons/v1/png_71/generic_business-71.png",
            "name": "DHM-CAR",
            "photos": null,
            "place_id": "ChIJz1di5DiLnw0RIOn0k_Nfkmo",
            "rating": 4.7,
            "reference": "ChIJz1di5DiLnw0RIOn0k_Nfkmo",
            "scope": "MEANZ TEST",
            "types": [
                "car_rental",
                "point_of_interest",
                "establishment"
            ],
            "user_ratings_total": 3,
            "vicinity": "Fes",
            "opening_hours": {
                "open_now": false
            }
        },
        {
            "business_status": "OPERATIONAL",
            "geometry": {
                "location": {
                    "lat": 33.930628,
                    "lng": -4.982138999999999
                },
                "viewport": {
                    "northeast": {
                        "lat": 33.9320673302915,
                        "lng": -4.980786669708498
                    },
                    "southwest": {
                        "lat": 33.9293693697085,
                        "lng": -4.983484630291502
                    }
                }
            },
            "icon": "https://maps.gstatic.com/mapfiles/place_api/icons/v1/png_71/generic_business-71.png",
            "name": "Dollar Car Rental",
            "photos": [
                {
                    "height": 720,
                    "photo_reference": "ATtYBwIt6JnrpO9D7pwGjZ6Ui2Zf8QWWrUNZazwDoy3gpmbK8EJAABAAM0f9vZ-pgc8XqP4vEao489RnaEou3HTBKrt_BDVZr3A4jBfyWCNjDungQNOQSD9V_SAb_m6-XZZ2gtf9GdDvNRYQak8rWzhsIwh6m53zKhMCfRW5RmSvikcwVJKC",
                    "width": 720
                }
            ],
            "place_id": "ChIJ4106zmmJnw0R14JjrzeTXo4",
            "rating": null,
            "reference": "ChIJ4106zmmJnw0R14JjrzeTXo4",
            "scope": "MEANZ TEST",
            "types": [
                "car_rental",
                "point_of_interest",
                "establishment"
            ],
            "user_ratings_total": null,
            "vicinity": "SAISS AIRPORT, Fès",
            "opening_hours": {
                "open_now": false
            }
        },
        {
            "business_status": "OPERATIONAL",
            "geometry": {
                "location": {
                    "lat": 34.03411499999999,
                    "lng": -5.013348
                },
                "viewport": {
                    "northeast": {
                        "lat": 34.0352974302915,
                        "lng": -5.012220669708497
                    },
                    "southwest": {
                        "lat": 34.0325994697085,
                        "lng": -5.014918630291501
                    }
                }
            },
            "icon": "https://maps.gstatic.com/mapfiles/place_api/icons/v1/png_71/generic_business-71.png",
            "name": "Dollar Car Rental",
            "photos": [
                {
                    "height": 720,
                    "photo_reference": "ATtYBwJoXEdIxWewx9OvV8A0R14foS7mZiTshi5ribehKM-HU1AvIJ05J0-ijxZ_FsBAYCa2Z4hPAFUJk-E8pFMJxgUeS8D5S19yxVl3yMACpK4HT07MtY3XPBA2TXcrYdYTeLb7vgC9f0lGy2-jtypUvF8kDpKW4AGwmHv-G_MfCER3FGmE",
                    "width": 720
                }
            ],
            "place_id": "ChIJ-aVk-pKLnw0RlRiYZEr9-tI",
            "rating": null,
            "reference": "ChIJ-aVk-pKLnw0RlRiYZEr9-tI",
            "scope": "MEANZ TEST",
            "types": [
                "car_rental",
                "point_of_interest",
                "establishment"
            ],
            "user_ratings_total": null,
            "vicinity": "NO 1 KISSARIAT DE LA FOIRE, Fès",
            "opening_hours": {
                "open_now": false
            }
        },
        {
            "business_status": "OPERATIONAL",
            "geometry": {
                "location": {
                    "lat": 34.0425084,
                    "lng": -5.0017695
                },
                "viewport": {
                    "northeast": {
                        "lat": 34.0438740302915,
                        "lng": -5.000407219708497
                    },
                    "southwest": {
                        "lat": 34.0411760697085,
                        "lng": -5.003105180291501
                    }
                }
            },
            "icon": "https://maps.gstatic.com/mapfiles/place_api/icons/v1/png_71/generic_business-71.png",
            "name": "Dollar [Fès City]",
            "photos": null,
            "place_id": "ChIJXyUKPgqLnw0RoLBrvQKBrYI",
            "rating": null,
            "reference": "ChIJXyUKPgqLnw0RoLBrvQKBrYI",
            "scope": "MEANZ TEST",
            "types": [
                "car_rental",
                "point_of_interest",
                "establishment"
            ],
            "user_ratings_total": null,
            "vicinity": "Avenue Lalla Meryem, Fes",
            "opening_hours": {
                "open_now": false
            }
        },
        {
            "business_status": "OPERATIONAL",
            "geometry": {
                "location": {
                    "lat": 34.0075547,
                    "lng": -5.0106799
                },
                "viewport": {
                    "northeast": {
                        "lat": 34.00886893029149,
                        "lng": -5.009385269708496
                    },
                    "southwest": {
                        "lat": 34.00617096970849,
                        "lng": -5.012083230291501
                    }
                }
            },
            "icon": "https://maps.gstatic.com/mapfiles/place_api/icons/v1/png_71/generic_business-71.png",
            "name": "Douinine Car",
            "photos": null,
            "place_id": "ChIJjwPdeQeLnw0Rh0MuAR07muY",
            "rating": 3.0,
            "reference": "ChIJjwPdeQeLnw0Rh0MuAR07muY",
            "scope": "MEANZ TEST",
            "types": [
                "car_rental",
                "point_of_interest",
                "establishment"
            ],
            "user_ratings_total": 2,
            "vicinity": "N°144 Lot Riad Zaitoune, Ain chkf, Fès",
            "opening_hours": {
                "open_now": false
            }
        },
        {
            "business_status": "OPERATIONAL",
            "geometry": {
                "location": {
                    "lat": 34.0344416,
                    "lng": -5.005167
                },
                "viewport": {
                    "northeast": {
                        "lat": 34.0358075802915,
                        "lng": -5.003850019708498
                    },
                    "southwest": {
                        "lat": 34.03310961970851,
                        "lng": -5.006547980291502
                    }
                }
            },
            "icon": "https://maps.gstatic.com/mapfiles/place_api/icons/v1/png_71/generic_business-71.png",
            "name": "Dutch Rental Car",
            "photos": null,
            "place_id": "ChIJTyXj1ZWLnw0RHT6-9uMO4ZI",
            "rating": null,
            "reference": "ChIJTyXj1ZWLnw0RHT6-9uMO4ZI",
            "scope": "MEANZ TEST",
            "types": [
                "car_rental",
                "point_of_interest",
                "establishment"
            ],
            "user_ratings_total": null,
            "vicinity": "Avenue Allal Ben Abdellah, Espace Rihab, Imm. C, n°11, Fès",
            "opening_hours": null
        },
        {
            "business_status": "OPERATIONAL",
            "geometry": {
                "location": {
                    "lat": 34.008403,
                    "lng": -5.0147679
                },
                "viewport": {
                    "northeast": {
                        "lat": 34.0097089302915,
                        "lng": -5.013436119708497
                    },
                    "southwest": {
                        "lat": 34.0070109697085,
                        "lng": -5.016134080291502
                    }
                }
            },
            "icon": "https://maps.gstatic.com/mapfiles/place_api/icons/v1/png_71/generic_business-71.png",
            "name": "EL AMRANI CARS",
            "photos": null,
            "place_id": "ChIJcRXl96OLnw0RmNpjAAWUfSY",
            "rating": null,
            "reference": "ChIJcRXl96OLnw0RmNpjAAWUfSY",
            "scope": "MEANZ TEST",
            "types": [
                "car_rental",
                "point_of_interest",
                "establishment"
            ],
            "user_ratings_total": null,
            "vicinity": "Rue 9, Fès",
            "opening_hours": {
                "open_now": true
            }
        },
        {
            "business_status": "OPERATIONAL",
            "geometry": {
                "location": {
                    "lat": 34.0218351,
                    "lng": -5.0073801
                },
                "viewport": {
                    "northeast": {
                        "lat": 34.0231909302915,
                        "lng": -5.006047619708498
                    },
                    "southwest": {
                        "lat": 34.0204929697085,
                        "lng": -5.008745580291502
                    }
                }
            },
            "icon": "https://maps.gstatic.com/mapfiles/place_api/icons/v1/png_71/generic_business-71.png",
            "name": "EL GHAYAM CAR",
            "photos": [
                {
                    "height": 1920,
                    "photo_reference": "ATtYBwK3gS201ahzch4bAtNuAQWqxRQFptcp8UXbhT03JejOQl-LaIBgI0s34baiO-VLwxpGn0mf5H8PNI-keIbOq6Z6mioWAxo510lJ6ts9PwgenS3tj6IfTsb4YtX4SfTc6BNDXe8yzcMI-UWQc4FRPp4ODjG4dMOD1A2RfQh0SadvNY-j",
                    "width": 1080
                }
            ],
            "place_id": "ChIJuwvZvaWLnw0RdohDDclIarA",
            "rating": 5.0,
            "reference": "ChIJuwvZvaWLnw0RdohDDclIarA",
            "scope": "MEANZ TEST",
            "types": [
                "car_rental",
                "point_of_interest",
                "establishment"
            ],
            "user_ratings_total": 5,
            "vicinity": "Rue 49، Fes 30050",
            "opening_hours": {
                "open_now": true
            }
        },
        {
            "business_status": "OPERATIONAL",
            "geometry": {
                "location": {
                    "lat": 34.059255,
                    "lng": -5.030195999999999
                },
                "viewport": {
                    "northeast": {
                        "lat": 34.0605696302915,
                        "lng": -5.028843869708497
                    },
                    "southwest": {
                        "lat": 34.0578716697085,
                        "lng": -5.031541830291502
                    }
                }
            },
            "icon": "https://maps.gstatic.com/mapfiles/place_api/icons/v1/png_71/generic_business-71.png",
            "name": "Elite Car Rental",
            "photos": null,
            "place_id": "ChIJM4xN-j31nw0RpJ-uE2yeVHw",
            "rating": null,
            "reference": "ChIJM4xN-j31nw0RpJ-uE2yeVHw",
            "scope": "MEANZ TEST",
            "types": [
                "car_rental",
                "point_of_interest",
                "establishment"
            ],
            "user_ratings_total": null,
            "vicinity": "403.Bloc z/c Magasin 2 Lot Hadika, Fes",
            "opening_hours": null
        },
        {
            "business_status": "OPERATIONAL",
            "geometry": {
                "location": {
                    "lat": 34.0015574,
                    "lng": -5.010684400000001
                },
                "viewport": {
                    "northeast": {
                        "lat": 34.00289523029149,
                        "lng": -5.009382619708497
                    },
                    "southwest": {
                        "lat": 34.00019726970849,
                        "lng": -5.012080580291502
                    }
                }
            },
            "icon": "https://maps.gstatic.com/mapfiles/place_api/icons/v1/png_71/generic_business-71.png",
            "name": "Elouali cars",
            "photos": null,
            "place_id": "ChIJm4Gu2BOLnw0R7304Q2yoOx8",
            "rating": null,
            "reference": "ChIJm4Gu2BOLnw0R7304Q2yoOx8",
            "scope": "MEANZ TEST",
            "types": [
                "car_rental",
                "point_of_interest",
                "establishment"
            ],
            "user_ratings_total": null,
            "vicinity": "2ème étage, Carrefour, Ain chkf, Fès",
            "opening_hours": {
                "open_now": true
            }
        },
        {
            "business_status": "OPERATIONAL",
            "geometry": {
                "location": {
                    "lat": 34.0117826,
                    "lng": -4.975458099999999
                },
                "viewport": {
                    "northeast": {
                        "lat": 34.0131262302915,
                        "lng": -4.974118969708497
                    },
                    "southwest": {
                        "lat": 34.01042826970851,
                        "lng": -4.976816930291502
                    }
                }
            },
            "icon": "https://maps.gstatic.com/mapfiles/place_api/icons/v1/png_71/generic_business-71.png",
            "name": "Ennejjaricar SARL",
            "photos": [
                {
                    "height": 640,
                    "photo_reference": "ATtYBwJ_QjlgAcENG4eNZ4fCoEr8mFmCGDhtCzufhB_MEvOMvVJqIs3u8EB4UxlnYEW1vzcCLxrSJ8kAYsyJ9c14rDRCDWg2IVWRc-cEwlXH7KUdHhXwjGyFJdBowFH9KraWpRfCn-Fh1gOZl8yGwBnzf664dfEtZuCPIn5O7iR9QwLWd2Ct",
                    "width": 640
                }
            ],
            "place_id": "ChIJAyy_pGKMnw0ROHfGiiwg2Bk",
            "rating": 4.3,
            "reference": "ChIJAyy_pGKMnw0ROHfGiiwg2Bk",
            "scope": "MEANZ TEST",
            "types": [
                "car_rental",
                "point_of_interest",
                "establishment"
            ],
            "user_ratings_total": 3,
            "vicinity": "5, AV JADDA RTE SEFROU OUAFAE, Fes",
            "opening_hours": {
                "open_now": false
            }
        },
        {
            "business_status": "OPERATIONAL",
            "geometry": {
                "location": {
                    "lat": 34.0422255,
                    "lng": -4.9984685
                },
                "viewport": {
                    "northeast": {
                        "lat": 34.0436077302915,
                        "lng": -4.997183019708497
                    },
                    "southwest": {
                        "lat": 34.0409097697085,
                        "lng": -4.999880980291501
                    }
                }
            },
            "icon": "https://maps.gstatic.com/mapfiles/place_api/icons/v1/png_71/generic_business-71.png",
            "name": "Europcar",
            "photos": [
                {
                    "height": 4608,
                    "photo_reference": "ATtYBwIlV7-dc31gpVB_QXk1zJ4QZe7pnPnrI4bQPM8_Jty2FBqIDHatoZ6Xbc-WMSWy0c3tD1PdFfl8LEJooPskvJOUHeLwatRXhCAs3ykwQIqnEA1ZzTpobonGeENJfU6VuZj7IsWxe7zs8PFTljjI0zj8bleYvsEgRY_HNsTy58eERPzL",
                    "width": 3456
                }
            ],
            "place_id": "ChIJ_YCoo7H0nw0RtmWGNQ756mY",
            "rating": 3.3,
            "reference": "ChIJ_YCoo7H0nw0RtmWGNQ756mY",
            "scope": "MEANZ TEST",
            "types": [
                "car_rental",
                "point_of_interest",
                "establishment"
            ],
            "user_ratings_total": 25,
            "vicinity": "45 Avenue Hassan II, Fès",
            "opening_hours": {
                "open_now": false
            }
        },
        {
            "business_status": "OPERATIONAL",
            "geometry": {
                "location": {
                    "lat": 33.9305208,
                    "lng": -4.981702099999999
                },
                "viewport": {
                    "northeast": {
                        "lat": 33.9320163802915,
                        "lng": -4.980370169708497
                    },
                    "southwest": {
                        "lat": 33.9293184197085,
                        "lng": -4.983068130291501
                    }
                }
            },
            "icon": "https://maps.gstatic.com/mapfiles/place_api/icons/v1/png_71/generic_business-71.png",
            "name": "Europcar",
            "photos": [
                {
                    "height": 4128,
                    "photo_reference": "ATtYBwITr7dyjIuv_ao0TNFjsmXKkpM_zQXJ3Yxvg0sZuJ0MgeJGpquDvIGHaHIa0lZH-8Z9E0riLW-3AyQRrAJ_tCHITSDezMt5F5ZqWWCOGxHpMhrfKxmXea8u7MuwxSfy4cIEx1zpSSO7rg4PZzBxdyYnNO_4PHN3NEEMS8LyfPEdkSSw",
                    "width": 3096
                }
            ],
            "place_id": "ChIJvwuyjy2Jnw0RLWD6q3bPqUM",
            "rating": 1.4,
            "reference": "ChIJvwuyjy2Jnw0RLWD6q3bPqUM",
            "scope": "MEANZ TEST",
            "types": [
                "car_rental",
                "point_of_interest",
                "establishment"
            ],
            "user_ratings_total": 10,
            "vicinity": "Fes-Saiss, FEZ",
            "opening_hours": {
                "open_now": false
            }
        },
        {
            "business_status": "OPERATIONAL",
            "geometry": {
                "location": {
                    "lat": 34.039349,
                    "lng": -5.029084999999999
                },
                "viewport": {
                    "northeast": {
                        "lat": 34.0406978302915,
                        "lng": -5.027728119708497
                    },
                    "southwest": {
                        "lat": 34.0379998697085,
                        "lng": -5.030426080291502
                    }
                }
            },
            "icon": "https://maps.gstatic.com/mapfiles/place_api/icons/v1/png_71/generic_business-71.png",
            "name": "FES ATLAS CAR",
            "photos": null,
            "place_id": "ChIJ9x5bVsWKnw0RctB_0WR8ENU",
            "rating": 4.7,
            "reference": "ChIJ9x5bVsWKnw0RctB_0WR8ENU",
            "scope": "MEANZ TEST",
            "types": [
                "car_rental",
                "point_of_interest",
                "establishment"
            ],
            "user_ratings_total": 3,
            "vicinity": "MAG 4 RDC N° 134 HAY LAHBABI DOUKKARAT",
            "opening_hours": {
                "open_now": false
            }
        },
        {
            "business_status": "OPERATIONAL",
            "geometry": {
                "location": {
                    "lat": 34.01984340000001,
                    "lng": -5.006450399999999
                },
                "viewport": {
                    "northeast": {
                        "lat": 34.0211844802915,
                        "lng": -5.005158719708497
                    },
                    "southwest": {
                        "lat": 34.0184865197085,
                        "lng": -5.007856680291502
                    }
                }
            },
            "icon": "https://maps.gstatic.com/mapfiles/place_api/icons/v1/png_71/generic_business-71.png",
            "name": "FalovCar",
            "photos": null,
            "place_id": "ChIJhU6UQRCLnw0RpnCasARN1bo",
            "rating": 3.7,
            "reference": "ChIJhU6UQRCLnw0RpnCasARN1bo",
            "scope": "MEANZ TEST",
            "types": [
                "car_rental",
                "point_of_interest",
                "establishment"
            ],
            "user_ratings_total": 3,
            "vicinity": "Avenue Sant Louis, Fès",
            "opening_hours": {
                "open_now": false
            }
        },
        {
            "business_status": "OPERATIONAL",
            "geometry": {
                "location": {
                    "lat": 34.0422222,
                    "lng": -4.9978889
                },
                "viewport": {
                    "northeast": {
                        "lat": 34.04357753029149,
                        "lng": -4.996535069708498
                    },
                    "southwest": {
                        "lat": 34.04087956970849,
                        "lng": -4.999233030291502
                    }
                }
            },
            "icon": "https://maps.gstatic.com/mapfiles/place_api/icons/v1/png_71/generic_business-71.png",
            "name": "Fassia Car",
            "photos": [
                {
                    "height": 674,
                    "photo_reference": "ATtYBwLL0HWKMrZURGCicWrB8O4RnCLb_2DcjiIu3q55DwiMJOHJyCAvs9S3SOV5pXur4DywNMRsCS5W0FGQNVc83ACPlmKS_MszgEUK53YEs_wEVEgrVI4ewkPhc0BTzhltvYJBpL8ytHu-EODocZZ_m-52VnWbtDCgZ1BeNpiU-vF-C9y8",
                    "width": 1015
                }
            ],
            "place_id": "ChIJk5mX3TeLnw0RiGXBIOgzd4E",
            "rating": 5.0,
            "reference": "ChIJk5mX3TeLnw0RiGXBIOgzd4E",
            "scope": "MEANZ TEST",
            "types": [
                "car_rental",
                "point_of_interest",
                "establishment"
            ],
            "user_ratings_total": 2,
            "vicinity": "Rue 4, Fès",
            "opening_hours": {
                "open_now": false
            }
        },
        {
            "business_status": "OPERATIONAL",
            "geometry": {
                "location": {
                    "lat": 34.0541304,
                    "lng": -5.036423399999999
                },
                "viewport": {
                    "northeast": {
                        "lat": 34.05547963029149,
                        "lng": -5.035073219708498
                    },
                    "southwest": {
                        "lat": 34.05278166970849,
                        "lng": -5.037771180291503
                    }
                }
            },
            "icon": "https://maps.gstatic.com/mapfiles/place_api/icons/v1/png_71/generic_business-71.png",
            "name": "Fes City Prestige Location",
            "photos": [
                {
                    "height": 4032,
                    "photo_reference": "ATtYBwLD2nJkWcJ45d33u0UzglXMkUXeFXXilpn9cgwzMgbcL6fuHaWwyHkCOqKnmx_5b5UvNt_zx7zS_KCgv-F4N-08GtIpJuq_R0AwDQ3M5HY9dOy79bnxYAAGFceV7MJ7tf7ycyOUn3_IkA73nhmAwPUsZNURdQ6TXz-iAge87nOPeA3S",
                    "width": 3024
                }
            ],
            "place_id": "ChIJnUp8iiv1nw0Rk1ozNxFew60",
            "rating": null,
            "reference": "ChIJnUp8iiv1nw0Rk1ozNxFew60",
            "scope": "MEANZ TEST",
            "types": [
                "car_rental",
                "point_of_interest",
                "establishment"
            ],
            "user_ratings_total": null,
            "vicinity": "298 Lots Hiba Route Meknes Oued Fes",
            "opening_hours": {
                "open_now": false
            }
        },
        {
            "business_status": "OPERATIONAL",
            "geometry": {
                "location": {
                    "lat": 34.0071798,
                    "lng": -4.968530999999999
                },
                "viewport": {
                    "northeast": {
                        "lat": 34.0085334802915,
                        "lng": -4.967172569708498
                    },
                    "southwest": {
                        "lat": 34.0058355197085,
                        "lng": -4.969870530291502
                    }
                }
            },
            "icon": "https://maps.gstatic.com/mapfiles/place_api/icons/v1/png_71/generic_business-71.png",
            "name": "Fes appartement",
            "photos": null,
            "place_id": "ChIJLVkDX3CNnw0RFPcM2fzWQRs",
            "rating": null,
            "reference": "ChIJLVkDX3CNnw0RFPcM2fzWQRs",
            "scope": "MEANZ TEST",
            "types": [
                "car_rental",
                "point_of_interest",
                "establishment"
            ],
            "user_ratings_total": null,
            "vicinity": "Boulevard Al Amal, Fès",
            "opening_hours": null
        },
        {
            "business_status": "OPERATIONAL",
            "geometry": {
                "location": {
                    "lat": 34.03289499999999,
                    "lng": -4.997104999999999
                },
                "viewport": {
                    "northeast": {
                        "lat": 34.0342399802915,
                        "lng": -4.995812669708498
                    },
                    "southwest": {
                        "lat": 34.0315420197085,
                        "lng": -4.998510630291503
                    }
                }
            },
            "icon": "https://maps.gstatic.com/mapfiles/place_api/icons/v1/png_71/generic_business-71.png",
            "name": "FesCityCar",
            "photos": [
                {
                    "height": 1920,
                    "photo_reference": "ATtYBwLS1tQ9gPLzij5HK1cHZOAElA4DIT72lKid1hWjqoOsfiXuD6LPTK9LyHmaxwLVImr0LdIPLasRBj3NoI0_IH_hBtFMIvhcVJUjuX0XdHdM_ziHr12y-nBv0kK1NtHJ36M2w325BOEAU4hBXXc1GYnHwKu7Mmz-_7vQoQ0Z2-uRXU8X",
                    "width": 1080
                }
            ],
            "place_id": "ChIJYWQsNjmLnw0Ry_1qnW-ZA4w",
            "rating": 5.0,
            "reference": "ChIJYWQsNjmLnw0Ry_1qnW-ZA4w",
            "scope": "MEANZ TEST",
            "types": [
                "car_rental",
                "point_of_interest",
                "establishment"
            ],
            "user_ratings_total": 1,
            "vicinity": "Bureau 3, 1er Etage Lot. Idrissia 10, Avenue Bir Anzarane Fès Maroc, Fes",
            "opening_hours": {
                "open_now": true
            }
        },
        {
            "business_status": "OPERATIONAL",
            "geometry": {
                "location": {
                    "lat": 33.9317198,
                    "lng": -4.9838116
                },
                "viewport": {
                    "northeast": {
                        "lat": 33.9328780802915,
                        "lng": -4.982462719708497
                    },
                    "southwest": {
                        "lat": 33.9301801197085,
                        "lng": -4.985160680291502
                    }
                }
            },
            "icon": "https://maps.gstatic.com/mapfiles/place_api/icons/v1/png_71/generic_business-71.png",
            "name": "FesCityCar",
            "photos": null,
            "place_id": "ChIJl7POOkqJnw0RVWgd2Y6CT2A",
            "rating": null,
            "reference": "ChIJl7POOkqJnw0RVWgd2Y6CT2A",
            "scope": "MEANZ TEST",
            "types": [
                "car_rental",
                "point_of_interest",
                "establishment"
            ],
            "user_ratings_total": null,
            "vicinity": "Aéroport Fes Sais, Fès",
            "opening_hours": null
        },
        {
            "business_status": "OPERATIONAL",
            "geometry": {
                "location": {
                    "lat": 34.041125,
                    "lng": -4.9965956
                },
                "viewport": {
                    "northeast": {
                        "lat": 34.0424735302915,
                        "lng": -4.995255369708498
                    },
                    "southwest": {
                        "lat": 34.0397755697085,
                        "lng": -4.997953330291502
                    }
                }
            },
            "icon": "https://maps.gstatic.com/mapfiles/place_api/icons/v1/png_71/generic_business-71.png",
            "name": "Florencia car",
            "photos": [
                {
                    "height": 4032,
                    "photo_reference": "ATtYBwKeFwWVnediUewl6PWbpzsB-bxSW_b1C5gfDgWIvDtMiAaW19xzynw7_3uQUMrVNH_So_GlEPmaAq7dwgDL0XBW1x5yMezSPlZupkPa7rpRe0iOf3GaeFBfZBDFA3lfRzSPiZNcuDYqzDcQ9rCAoDRcgOovw9RV4mDGMpq-R9xlpx0e",
                    "width": 3024
                }
            ],
            "place_id": "ChIJTyUuCUiLnw0Rxn0RkQQW-Go",
            "rating": 5.0,
            "reference": "ChIJTyUuCUiLnw0Rxn0RkQQW-Go",
            "scope": "MEANZ TEST",
            "types": [
                "car_rental",
                "point_of_interest",
                "establishment"
            ],
            "user_ratings_total": 6,
            "vicinity": "29 Boulevard Abdellah Chafchaouni, Fès",
            "opening_hours": {
                "open_now": true
            }
        },
        {
            "business_status": "OPERATIONAL",
            "geometry": {
                "location": {
                    "lat": 34.03113589999999,
                    "lng": -4.9950483
                },
                "viewport": {
                    "northeast": {
                        "lat": 34.0324882302915,
                        "lng": -4.993662519708497
                    },
                    "southwest": {
                        "lat": 34.0297902697085,
                        "lng": -4.996360480291502
                    }
                }
            },
            "icon": "https://maps.gstatic.com/mapfiles/place_api/icons/v1/png_71/generic_business-71.png",
            "name": "G2H CAR",
            "photos": null,
            "place_id": "ChIJF938vV-Lnw0RP-uKhmlP6vY",
            "rating": null,
            "reference": "ChIJF938vV-Lnw0RP-uKhmlP6vY",
            "scope": "MEANZ TEST",
            "types": [
                "car_rental",
                "point_of_interest",
                "establishment"
            ],
            "user_ratings_total": null,
            "vicinity": "ru houcima résidence atlas étage 5 bureaux 32, Fès",
            "opening_hours": {
                "open_now": true
            }
        },
        {
            "business_status": "OPERATIONAL",
            "geometry": {
                "location": {
                    "lat": 34.0198045,
                    "lng": -5.019496
                },
                "viewport": {
                    "northeast": {
                        "lat": 34.0211828802915,
                        "lng": -5.018193219708497
                    },
                    "southwest": {
                        "lat": 34.0184849197085,
                        "lng": -5.020891180291501
                    }
                }
            },
            "icon": "https://maps.gstatic.com/mapfiles/place_api/icons/v1/png_71/generic_business-71.png",
            "name": "GoldRoger Cars",
            "photos": [
                {
                    "height": 317,
                    "photo_reference": "ATtYBwLtoGClH_1wJ4qesclWMy-b4zsUGCG2lLrbhlhJBUuNYq2_L1ht60QlRvqgar2eSbiWYkH5-dVrjvHnaH3f7XLMv3bbCjVIfXGAI1yOsIeCS1oghBXAciLnfjowo8BgGLzwnHkVcBLxqf5HS9XzsH-lO8RktyVRdbYTpMdgW-lqCnVP",
                    "width": 564
                }
            ],
            "place_id": "ChIJ1XB4IDiLnw0R7YXKa3kBbqY",
            "rating": 5.0,
            "reference": "ChIJ1XB4IDiLnw0R7YXKa3kBbqY",
            "scope": "MEANZ TEST",
            "types": [
                "car_rental",
                "point_of_interest",
                "establishment"
            ],
            "user_ratings_total": 25,
            "vicinity": "N 12 RCE SALIMA 1 ROUTE, Avenue Ain S'men, Fès",
            "opening_hours": {
                "open_now": true
            }
        },
        {
            "business_status": "OPERATIONAL",
            "geometry": {
                "location": {
                    "lat": 33.9317365,
                    "lng": -4.9848365
                },
                "viewport": {
                    "northeast": {
                        "lat": 33.93288983029149,
                        "lng": -4.983489669708498
                    },
                    "southwest": {
                        "lat": 33.9301918697085,
                        "lng": -4.986187630291502
                    }
                }
            },