{
    "results": [
        {
            "business_status": "OPERATIONAL",
            "geometry": {
                "location": {
                    "lat": 31.9300849,
                    "lng": -4.4259522
                },
                "viewport": {
                    "northeast": {
                        "lat": 31.93152542989272,
                        "lng": -4.424521220107279
                    },
                    "southwest": {
                        "lat": 31.92882577010727,
                        "lng": -4.427220879892722
                    }
                }
            },
            "icon": "https://maps.gstatic.com/mapfiles/place_api/icons/v1/png_71/generic_business-71.png",
            "name": "Location De Voiture Belhassan",
            "photos": [
                {
                    "height": 768,
                    "photo_reference": "ATtYBwJNq4t-IqBvdSYQZSRRZZcGfT5vPPRfCSCh2AkRskuFoJYF4F-wJsD5YXMQyjGZENzk_NgEo135LfIgFYcCBbc61dQufTPn89y-dFzT16KYw1_H7P2MRlT96qkRm3rlpboqHAnbEO0KB3_45wKH1GlfM2C52iHvKN5b3kj8BzmXXd6V",
                    "width": 1024
                }
            ],
            "place_id": "ChIJZyNCjFBLmA0RU3oceyR1r0g",
            "rating": 4.8,
            "reference": "ChIJZyNCjFBLmA0RU3oceyR1r0g",
            "scope": "MEANZ TEST",
            "types": [
                "car_rental",
                "point_of_interest",
                "establishment"
            ],
            "user_ratings_total": 29,
            "vicinity": "Complexe Commercial My Ali Cherif N°47, 52000, Morocco ",
            "opening_hours": {
                "open_now": true
            }
        },
        {
            "business_status": "OPERATIONAL",
            "geometry": {
                "location": {
                    "lat": 31.6372912,
                    "lng": -8.0141952
                },
                "viewport": {
                    "northeast": {
                        "lat": 31.63859802989272,
                        "lng": -8.012821270107278
                    },
                    "southwest": {
                        "lat": 31.63589837010728,
                        "lng": -8.015520929892721
                    }
                }
            },
            "icon": "https://maps.gstatic.com/mapfiles/place_api/icons/v1/png_71/generic_business-71.png",
            "name": "Newlivecar Marrakech",
            "photos": null,
            "place_id": "ChIJDWgiIpDurw0RQ0P9I9y-3JA",
            "rating": 5.0,
            "reference": "ChIJDWgiIpDurw0RQ0P9I9y-3JA",
            "scope": "MEANZ TEST",
            "types": [
                "car_rental",
                "point_of_interest",
                "establishment"
            ],
            "user_ratings_total": 2,
            "vicinity": "Rue Moulay Ali Cherif, RDC Imm Elhouda 23 Gueliz، Marrakesh 40000, Morocco ",
            "opening_hours": null
        },
        {
            "business_status": "OPERATIONAL",
            "geometry": {
                "location": {
                    "lat": 36.126583,
                    "lng": -5.444541
                },
                "viewport": {
                    "northeast": {
                        "lat": 36.12793227989272,
                        "lng": -5.443151770107279
                    },
                    "southwest": {
                        "lat": 36.12523262010728,
                        "lng": -5.445851429892723
                    }
                }
            },
            "icon": "https://maps.gstatic.com/mapfiles/place_api/icons/v1/png_71/generic_business-71.png",
            "name": "Avis Alquiler de Coches en Algeciras",
            "photos": [
                {
                    "height": 608,
                    "photo_reference": "ATtYBwI4IdGSk8XDenao79-YiwuBLvEEaa0Cve5UZZMIbIWATiTfSt6GQW2vJwDbV0XCpudmeThMDZZflY-Yn92s1Ppmto797kPFc6f0EmGIZ0Ybsnq8ms_pTyWrmc3lhZX_Y5ed8g_kfJfU2XT1l0odUYGLSSkO9RrOwfblhc7M1CiyxA0E",
                    "width": 1080
                }
            ],
            "place_id": "ChIJR0b2-NqUDA0Rk5E5YKOQY50",
            "rating": 3.5,
            "reference": "ChIJR0b2-NqUDA0Rk5E5YKOQY50",
            "scope": "MEANZ TEST",
            "types": [
                "car_rental",
                "point_of_interest",
                "establishment"
            ],
            "user_ratings_total": 100,
            "vicinity": "Av. Villanueva, 3, 11207 Algeciras, Cádiz, Spain ",
            "opening_hours": {
                "open_now": true
            }
        },
        {
            "business_status": "OPERATIONAL",
            "geometry": {
                "location": {
                    "lat": 36.1557013,
                    "lng": -5.3505861
                },
                "viewport": {
                    "northeast": {
                        "lat": 36.15704992989272,
                        "lng": -5.349270420107278
                    },
                    "southwest": {
                        "lat": 36.15435027010728,
                        "lng": -5.351970079892721
                    }
                }
            },
            "icon": "https://maps.gstatic.com/mapfiles/place_api/icons/v1/png_71/generic_business-71.png",
            "name": "Avis Alquiler de coches -Linea Concepcion",
            "photos": [
                {
                    "height": 2988,
                    "photo_reference": "ATtYBwKA2dMJnPqe20ZSZCrYxRxhsqAemxSI0xS2p685mhCsc4JXW6wRoy_VOxVMjhfGqFY23_sRLhDGGXEKPmg2GsVXXvcBHyYWd8RIt3TvIOT0d_rVeuCATNar7l8AS0SqK5Wqm1nUp5Zjk7XCPrvoDNqw1tmBLkedxTLAJFTdg2QZvT7n",
                    "width": 5312
                }
            ],
            "place_id": "ChIJm5jPAi3BDA0RsOVgpdtbojI",
            "rating": 2.7,
            "reference": "ChIJm5jPAi3BDA0RsOVgpdtbojI",
            "scope": "MEANZ TEST",
            "types": [
                "car_rental",
                "point_of_interest",
                "establishment"
            ],
            "user_ratings_total": 22,
            "vicinity": "Office In Terminal Gib Airport Pso Maritimo 2 Pk, Pje. Sta. Barbara, 11300 La Línea de la Concepción, Cádiz, Spain ",
            "opening_hours": {
                "open_now": false
            }
        },
        {
            "business_status": "OPERATIONAL",
            "geometry": {
                "location": {
                    "lat": 36.3519941,
                    "lng": -6.1640112
                },
                "viewport": {
                    "northeast": {
                        "lat": 36.35341572989272,
                        "lng": -6.162514920107277
                    },
                    "southwest": {
                        "lat": 36.35071607010728,
                        "lng": -6.165214579892721
                    }
                }
            },
            "icon": "https://maps.gstatic.com/mapfiles/place_api/icons/v1/png_71/generic_business-71.png",
            "name": "Avis",
            "photos": [
                {
                    "height": 4160,
                    "photo_reference": "ATtYBwI848sif4l3L8YY3Ns3S42O9CDt0M1MvQEGi4n_8RDcAgVBrnZEerUPbsI_zI37_GgRjAs69h82Wh0_CpB2F3Zy95_aSkG2GzkZK1dR20RfnpqMAI4TJTqEhdsreZnl8osTbiu7KJSFrj-tSeJex47_nRK2Cle5UE7yKwPNi_xstURw",
                    "width": 3120
                }
            ],
            "place_id": "ChIJG1GBgkgWl7ERv6LR1JmsQM8",
            "rating": 4.2,
            "reference": "ChIJG1GBgkgWl7ERv6LR1JmsQM8",
            "scope": "MEANZ TEST",
            "types": [
                "car_rental",
                "point_of_interest",
                "establishment"
            ],
            "user_ratings_total": 19,
            "vicinity": "Calle Asdrúbal, s/n, 11139 Chiclana de la Frontera, Cádiz, Spain ",
            "opening_hours": {
                "open_now": true
            }
        },
        {
            "business_status": "OPERATIONAL",
            "geometry": {
                "location": {
                    "lat": 28.858904,
                    "lng": -13.8350443
                },
                "viewport": {
                    "northeast": {
                        "lat": 28.86019147989272,
                        "lng": -13.83374427010728
                    },
                    "southwest": {
                        "lat": 28.85749182010728,
                        "lng": -13.83644392989272
                    }
                }
            },
            "icon": "https://maps.gstatic.com/mapfiles/place_api/icons/v1/png_71/generic_business-71.png",
            "name": "enterprise rent a car",
            "photos": null,
            "place_id": "ChIJ31CmTDg3RgwRALdMPG6BqsQ",
            "rating": 4.0,
            "reference": "ChIJ31CmTDg3RgwRALdMPG6BqsQ",
            "scope": "MEANZ TEST",
            "types": [
                "car_rental",
                "point_of_interest",
                "establishment"
            ],
            "user_ratings_total": 1,
            "vicinity": "Estacion Maritina De Playa Bla, Calle la Lapa, 35560 Playa Blanca, Las Palmas, Spain ",
            "opening_hours": {
                "open_now": true
            }
        },
        {
            "business_status": "OPERATIONAL",
            "geometry": {
                "location": {
                    "lat": 28.7406091,
                    "lng": -13.8631093
                },
                "viewport": {
                    "northeast": {
                        "lat": 28.74206102989272,
                        "lng": -13.86171937010728
                    },
                    "southwest": {
                        "lat": 28.73936137010727,
                        "lng": -13.86441902989272
                    }
                }
            },
            "icon": "https://maps.gstatic.com/mapfiles/place_api/icons/v1/png_71/generic_business-71.png",
            "name": "enterprise rent a car",
            "photos": null,
            "place_id": "ChIJczyIxv40RgwR48OBBEeEE9Q",
            "rating": 1.0,
            "reference": "ChIJczyIxv40RgwR48OBBEeEE9Q",
            "scope": "MEANZ TEST",
            "types": [
                "car_rental",
                "point_of_interest",
                "establishment"
            ],
            "user_ratings_total": 2,
            "vicinity": "Estacion Maritina De, 35640 Corralejo, Las Palmas, Spain ",
            "opening_hours": {
                "open_now": true
            }
        },
        {
            "business_status": "OPERATIONAL",
            "geometry": {
                "location": {
                    "lat": 28.4520663,
                    "lng": -13.8711271
                },
                "viewport": {
                    "northeast": {
                        "lat": 28.45335427989272,
                        "lng": -13.86989337010728
                    },
                    "southwest": {
                        "lat": 28.45065462010728,
                        "lng": -13.87259302989272
                    }
                }
            },
            "icon": "https://maps.gstatic.com/mapfiles/place_api/icons/v1/png_71/generic_business-71.png",
            "name": "enterprise rent a car",
            "photos": null,
            "place_id": "ChIJ60TPgR7HRwwRqaMgUy4njoA",
            "rating": 1.0,
            "reference": "ChIJ60TPgR7HRwwRqaMgUy4njoA",
            "scope": "MEANZ TEST",
            "types": [
                "car_rental",
                "point_of_interest",
                "establishment"
            ],
            "user_ratings_total": 1,
            "vicinity": "Fuerteventura Airport, El Matorral, 35610, Las Palmas, Spain ",
            "opening_hours": {
                "open_now": true
            }
        },
        {
            "business_status": "OPERATIONAL",
            "geometry": {
                "location": {
                    "lat": 29.0009837,
                    "lng": -13.4898944
                },
                "viewport": {
                    "northeast": {
                        "lat": 29.00222472989272,
                        "lng": -13.48844707010728
                    },
                    "southwest": {
                        "lat": 28.99952507010727,
                        "lng": -13.49114672989272
                    }
                }
            },
            "icon": "https://maps.gstatic.com/mapfiles/place_api/icons/v1/png_71/generic_business-71.png",
            "name": "enterprise rent a car",
            "photos": null,
            "place_id": "ChIJEx8TPC6cSAwRMtATNhXuzAo",
            "rating": 0.0,
            "reference": "ChIJEx8TPC6cSAwRMtATNhXuzAo",
            "scope": "MEANZ TEST",
            "types": [
                "car_rental",
                "point_of_interest",
                "establishment"
            ],
            "user_ratings_total": 0,
            "vicinity": "C.C LOS CHARCOS, Av. de las Islas Canarias, 35509 Arrecife, Las Palmas, Spain ",
            "opening_hours": {
                "open_now": true
            }
        },
        {
            "business_status": "OPERATIONAL",
            "geometry": {
                "location": {
                    "lat": 28.919793,
                    "lng": -13.6458361
                },
                "viewport": {
                    "northeast": {
                        "lat": 28.92121287989271,
                        "lng": -13.64448197010728
                    },
                    "southwest": {
                        "lat": 28.91851322010727,
                        "lng": -13.64718162989272
                    }
                }
            },
            "icon": "https://maps.gstatic.com/mapfiles/place_api/icons/v1/png_71/generic_business-71.png",
            "name": "Enterprise Rent - A - Car",
            "photos": null,
            "place_id": "ChIJVVV5uOUlRgwRPz2xrya2pJg",
            "rating": 0.0,
            "reference": "ChIJVVV5uOUlRgwRPz2xrya2pJg",
            "scope": "MEANZ TEST",
            "types": [
                "car_rental",
                "point_of_interest",
                "establishment"
            ],
            "user_ratings_total": 0,
            "vicinity": "BARCAROLA Lanzarote, Av. de las Playas, 80, 35510 Lanzarote, Las Palmas, Spain ",
            "opening_hours": {
                "open_now": false
            }
        }
    ]
}