{
    "results": [
        {
            "business_status": "OPERATIONAL",
            "geometry": {
                "location": {
                    "lat": 34.1913527,
                    "lng": -4.2616043
                },
                "viewport": {
                    "northeast": {
                        "lat": 34.19270417989272,
                        "lng": -4.260241970107278
                    },
                    "southwest": {
                        "lat": 34.19000452010728,
                        "lng": -4.262941629892722
                    }
                }
            },
            "icon": "https://maps.gstatic.com/mapfiles/place_api/icons/v1/png_71/generic_business-71.png",
            "name": "RENT CAR OUED AMLIL Chez Rachid",
            "photos": [
                {
                    "height": 1000,
                    "photo_reference": "ATtYBwI1uht0Ff2BFEejlRUZp1ZZnkauirnJVDtHYABFkk8IkmKIAUfHZkN1w8xT50hHLum0e5fkTi2W-7FUEFnWQ8o9Y7TbtGfdH5WIB7dfjtuZUxLCG9EaF8k7iHRmRgS6w_4UHeGcCwMeFhzM-cc3ZLTdGFj6fDjN0O7vhqoe4bTlnQ63",
                    "width": 1000
                }
            ],
            "place_id": "ChIJlaqqqt0wng0RZu-O09wt5PI",
            "rating": 4.6,
            "reference": "ChIJlaqqqt0wng0RZu-O09wt5PI",
            "scope": "MEANZ TEST",
            "types": [
                "car_rental",
                "point_of_interest",
                "establishment"
            ],
            "user_ratings_total": 5,
            "vicinity": "Oued Amlil 35250, Morocco ",
            "opening_hours": {
                "open_now": true
            }
        },
        {
            "business_status": "OPERATIONAL",
            "geometry": {
                "location": {
                    "lat": 34.1920568,
                    "lng": -4.2717809
                },
                "viewport": {
                    "northeast": {
                        "lat": 34.19328822989272,
                        "lng": -4.270394120107277
                    },
                    "southwest": {
                        "lat": 34.19058857010728,
                        "lng": -4.273093779892721
                    }
                }
            },
            "icon": "https://maps.gstatic.com/mapfiles/place_api/icons/v1/png_71/generic_business-71.png",
            "name": "Best union car",
            "photos": null,
            "place_id": "ChIJdUjscdkxng0Rlfx3hBugmNI",
            "rating": 0.0,
            "reference": "ChIJdUjscdkxng0Rlfx3hBugmNI",
            "scope": "MEANZ TEST",
            "types": [
                "car_rental",
                "point_of_interest",
                "establishment"
            ],
            "user_ratings_total": 0,
            "vicinity": "Oued Amlil, Morocco ",
            "opening_hours": {
                "open_now": true
            }
        },
        {
            "business_status": "OPERATIONAL",
            "geometry": {
                "location": {
                    "lat": 34.2215071,
                    "lng": -4.0071148
                },
                "viewport": {
                    "northeast": {
                        "lat": 34.22284507989273,
                        "lng": -4.005785020107279
                    },
                    "southwest": {
                        "lat": 34.22014542010729,
                        "lng": -4.008484679892723
                    }
                }
            },
            "icon": "https://maps.gstatic.com/mapfiles/place_api/icons/v1/png_71/generic_business-71.png",
            "name": "AZARYOUH RIF Location de voitures TAZA",
            "photos": [
                {
                    "height": 509,
                    "photo_reference": "ATtYBwJMlqFAAsAxlxcBsE2YvPa773cj_cpF15mvbBLIZ51oihfsHg1VFUCefW0OXj-3NcUlPbhRJW-QKjNSWIle_9kFBVxVE7_RKM47oHISHp_1pn5CzmQguHLRPBGncv9E_gKbk7jAN2hobM1KPN3SBcnrISwUeKYhV95FbqZb9Bjx31go",
                    "width": 822
                }
            ],
            "place_id": "ChIJn_lLVRIXng0R0KI79gRJWsc",
            "rating": 4.8,
            "reference": "ChIJn_lLVRIXng0R0KI79gRJWsc",
            "scope": "MEANZ TEST",
            "types": [
                "car_rental",
                "null",
                "point_of_interest",
                "null",
                "establishment"
            ],
            "user_ratings_total": 24,
            "vicinity": "immo AXA، Rue Ali Ibn Abi Talib Ang، Rue Allal Ben Abdallah, Taza 35000, Morocco ",
            "opening_hours": {
                "open_now": true
            }
        },
        {
            "business_status": "OPERATIONAL",
            "geometry": {
                "location": {
                    "lat": 34.2320892,
                    "lng": -4.0043559
                },
                "viewport": {
                    "northeast": {
                        "lat": 34.23350277989272,
                        "lng": -4.003005520107279
                    },
                    "southwest": {
                        "lat": 34.23080312010728,
                        "lng": -4.005705179892723
                    }
                }
            },
            "icon": "https://maps.gstatic.com/mapfiles/place_api/icons/v1/png_71/generic_business-71.png",
            "name": "Location de Voiture Hammouten",
            "photos": [
                {
                    "height": 3120,
                    "photo_reference": "ATtYBwKGIHhJeDeCdKBsSiDrXUTfE4fCSkhq69XKN3xQBV65tio7796MciYUX1_t_tMdzZyrq_JDg-ofFdgxDxQnabNNDYKZjLiNrUVwbON9LnmaPPEOkAielUZZaAq7zxDwDPwraS41zRJmOzRTkn3-n3Bw5PhZc-axn7HPCkY-_pKuaj24",
                    "width": 4160
                }
            ],
            "place_id": "ChIJz43qSSMXng0RF_FGTI8ejuc",
            "rating": 4.1,
            "reference": "ChIJz43qSSMXng0RF_FGTI8ejuc",
            "scope": "MEANZ TEST",
            "types": [
                "car_rental",
                "point_of_interest",
                "establishment"
            ],
            "user_ratings_total": 9,
            "vicinity": "a, Taza, Morocco ",
            "opening_hours": {
                "open_now": true
            }
        },
        {
            "business_status": "OPERATIONAL",
            "geometry": {
                "location": {
                    "lat": 34.222941,
                    "lng": -4.0080896
                },
                "viewport": {
                    "northeast": {
                        "lat": 34.22428477989272,
                        "lng": -4.006725170107278
                    },
                    "southwest": {
                        "lat": 34.22158512010728,
                        "lng": -4.009424829892722
                    }
                }
            },
            "icon": "https://maps.gstatic.com/mapfiles/place_api/icons/v1/png_71/generic_business-71.png",
            "name": "Location De Voiture Maria",
            "photos": null,
            "place_id": "ChIJmTodISAXng0Rl938eGoU9WM",
            "rating": 4.7,
            "reference": "ChIJmTodISAXng0Rl938eGoU9WM",
            "scope": "MEANZ TEST",
            "types": [
                "car_rental",
                "point_of_interest",
                "establishment"
            ],
            "user_ratings_total": 3,
            "vicinity": "a, Taza, Morocco ",
            "opening_hours": {
                "open_now": true
            }
        }
    ]
}