{
    "results": [
        {
            "business_status": "OPERATIONAL",
            "geometry": {
                "location": {
                    "lat": 34.0168622,
                    "lng": -6.8291147
                },
                "viewport": {
                    "northeast": {
                        "lat": 34.01818398029149,
                        "lng": -6.827742619708498
                    },
                    "southwest": {
                        "lat": 34.0154860197085,
                        "lng": -6.830440580291502
                    }
                }
            },
            "icon": "https://maps.gstatic.com/mapfiles/place_api/icons/v1/png_71/generic_business-71.png",
            "name": "2MLCAR'S",
            "photos": null,
            "place_id": "ChIJfZ3R5YZrpw0RL1LCsV4rJHE",
            "rating": null,
            "reference": "ChIJfZ3R5YZrpw0RL1LCsV4rJHE",
            "scope": "MEANZ TEST",
            "types": [
                "car_rental",
                "point_of_interest",
                "establishment"
            ],
            "user_ratings_total": null,
            "vicinity": "Annaba, 12 Avenue Moulay Hassan, Rabat ",
            "opening_hours": {
                "open_now": false
            }
        },
        {
            "business_status": "OPERATIONAL",
            "geometry": {
                "location": {
                    "lat": 34.00383179999999,
                    "lng": -6.848826600000001
                },
                "viewport": {
                    "northeast": {
                        "lat": 34.00517783029149,
                        "lng": -6.847473969708497
                    },
                    "southwest": {
                        "lat": 34.00247986970849,
                        "lng": -6.850171930291502
                    }
                }
            },
            "icon": "https://maps.gstatic.com/mapfiles/place_api/icons/v1/png_71/generic_business-71.png",
            "name": "ABD CARS",
            "photos": [
                {
                    "height": 3024,
                    "photo_reference": "ATtYBwIzAjil6hQFtZekSq1gISwTUmh1s_9hzO2K672EX-BwVUyom2QvJo6wxtkv5jU2pSY04HAJ_NFdXQKuQTcRJ45mMv2yLbeL7FBmn-Zktf6vbvg1wgbsBrpm5mUCOyHuFlw0Y8uQ4QIXzYh4Z6aDCEqKVAjX0IC2q4FLfvZIJY9HQkpt",
                    "width": 4032
                }
            ],
            "place_id": "ChIJmaZhA4lspw0RqgDylMm3W0M",
            "rating": 3.8,
            "reference": "ChIJmaZhA4lspw0RqgDylMm3W0M",
            "scope": "MEANZ TEST",
            "types": [
                "car_rental",
                "point_of_interest",
                "establishment"
            ],
            "user_ratings_total": 11,
            "vicinity": "abd cars, 5 Avenue Oqba Ibn Naafi, Rabat ",
            "opening_hours": {
                "open_now": false
            }
        },
        {
            "business_status": "OPERATIONAL",
            "geometry": {
                "location": {
                    "lat": 33.971601,
                    "lng": -6.849825300000001
                },
                "viewport": {
                    "northeast": {
                        "lat": 33.97304658029149,
                        "lng": -6.848596019708499
                    },
                    "southwest": {
                        "lat": 33.9703486197085,
                        "lng": -6.851293980291503
                    }
                }
            },
            "icon": "https://maps.gstatic.com/mapfiles/place_api/icons/v1/png_71/generic_business-71.png",
            "name": "ACE Rent A Car",
            "photos": null,
            "place_id": "ChIJn2n3z1Jtpw0Rnm_FoBbxhEg",
            "rating": null,
            "reference": "ChIJn2n3z1Jtpw0Rnm_FoBbxhEg",
            "scope": "MEANZ TEST",
            "types": [
                "car_rental",
                "point_of_interest",
                "establishment"
            ],
            "user_ratings_total": null,
            "vicinity": "Rabat-Salé Airport, Rabat ",
            "opening_hours": {
                "open_now": false
            }
        },
        {
            "business_status": "OPERATIONAL",
            "geometry": {
                "location": {
                    "lat": 33.9745123,
                    "lng": -6.885366100000001
                },
                "viewport": {
                    "northeast": {
                        "lat": 33.9758958802915,
                        "lng": -6.883985969708499
                    },
                    "southwest": {
                        "lat": 33.9731979197085,
                        "lng": -6.886683930291504
                    }
                }
            },
            "icon": "https://maps.gstatic.com/mapfiles/place_api/icons/v1/png_71/generic_business-71.png",
            "name": "AUTO DE LUX TOUR",
            "photos": [
                {
                    "height": 640,
                    "photo_reference": "ATtYBwJmunbEx47zclBGiG5NraF8IUm6RuCRfO-rQ4QV9w9DnKI8tzD2aWZ_H2uHhS3r3Kr-CJQVZyGuH9N14SkPnpqya5kOihX-0d_iVXghgbK1b5guPWMoF2CR7WihvmgtVISjbVsc3eizT7TwqfVoeHNz_-VvJAvl7IO7wTwiceYTq3Ah",
                    "width": 1200
                }
            ],
            "place_id": "ChIJKZabsiVtpw0RXaDqceZkIQ4",
            "rating": 5.0,
            "reference": "ChIJKZabsiVtpw0RXaDqceZkIQ4",
            "scope": "MEANZ TEST",
            "types": [
                "car_rental",
                "point_of_interest",
                "establishment"
            ],
            "user_ratings_total": 1,
            "vicinity": "Rabat ",
            "opening_hours": null
        },
        {
            "business_status": "OPERATIONAL",
            "geometry": {
                "location": {
                    "lat": 34.0164961,
                    "lng": -6.832942199999999
                },
                "viewport": {
                    "northeast": {
                        "lat": 34.0178852802915,
                        "lng": -6.831590469708497
                    },
                    "southwest": {
                        "lat": 34.0151873197085,
                        "lng": -6.834288430291502
                    }
                }
            },
            "icon": "https://maps.gstatic.com/mapfiles/place_api/icons/v1/png_71/generic_business-71.png",
            "name": "AVIS® - Location Voiture Rabat Centre Ville",
            "photos": [
                {
                    "height": 356,
                    "photo_reference": "ATtYBwJO2FyBhcV5pHfndPlIJYjWUMHuA01_59BmVk31gqtQiF7dkuIEWu3nWYfQ_Y-MN422Y6QdMCmKY54XORyy_d01iyHtA0RO-qBZKZWHAD_SxdlQvTyCg0_UJAw9lMrCJkyY78V6v8Nl1R2o009p_TY_2aJ2sJ0kLbj64ifaqGtegU4g",
                    "width": 742
                }
            ],
            "place_id": "ChIJSyfHnodrpw0RtcABKB8hKFc",
            "rating": 4.8,
            "reference": "ChIJSyfHnodrpw0RtcABKB8hKFc",
            "scope": "MEANZ TEST",
            "types": [
                "car_rental",
                "point_of_interest",
                "establishment"
            ],
            "user_ratings_total": 111,
            "vicinity": "7 Rue Abou Faris El Marini, Rabat ",
            "opening_hours": {
                "open_now": false
            }
        },
        {
            "business_status": "OPERATIONAL",
            "geometry": {
                "location": {
                    "lat": 34.0013579,
                    "lng": -6.8472586
                },
                "viewport": {
                    "northeast": {
                        "lat": 34.0027523802915,
                        "lng": -6.845931019708497
                    },
                    "southwest": {
                        "lat": 34.0000544197085,
                        "lng": -6.848628980291502
                    }
                }
            },
            "icon": "https://maps.gstatic.com/mapfiles/place_api/icons/v1/png_71/generic_business-71.png",
            "name": "Abtal tour",
            "photos": null,
            "place_id": "ChIJGe9zNo9spw0RIkIg4PZaPR0",
            "rating": null,
            "reference": "ChIJGe9zNo9spw0RIkIg4PZaPR0",
            "scope": "MEANZ TEST",
            "types": [
                "car_rental",
                "point_of_interest",
                "establishment"
            ],
            "user_ratings_total": null,
            "vicinity": "Rabat ",
            "opening_hours": {
                "open_now": false
            }
        },
        {
            "business_status": "OPERATIONAL",
            "geometry": {
                "location": {
                    "lat": 34.0183973,
                    "lng": -6.834373199999999
                },
                "viewport": {
                    "northeast": {
                        "lat": 34.0197406802915,
                        "lng": -6.833008619708498
                    },
                    "southwest": {
                        "lat": 34.0170427197085,
                        "lng": -6.835706580291503
                    }
                }
            },
            "icon": "https://maps.gstatic.com/mapfiles/place_api/icons/v1/png_71/generic_business-71.png",
            "name": "Adscar",
            "photos": null,
            "place_id": "ChIJGyH274drpw0Rr1l6hwykV6M",
            "rating": null,
            "reference": "ChIJGyH274drpw0Rr1l6hwykV6M",
            "scope": "MEANZ TEST",
            "types": [
                "car_rental",
                "point_of_interest",
                "establishment"
            ],
            "user_ratings_total": null,
            "vicinity": "N°1, Avenue Amir Moulay Abdellah, الرباط ",
            "opening_hours": {
                "open_now": false
            }
        },
        {
            "business_status": "OPERATIONAL",
            "geometry": {
                "location": {
                    "lat": 33.9984352,
                    "lng": -6.8453119
                },
                "viewport": {
                    "northeast": {
                        "lat": 33.9997690802915,
                        "lng": -6.844007519708498
                    },
                    "southwest": {
                        "lat": 33.9970711197085,
                        "lng": -6.846705480291503
                    }
                }
            },
            "icon": "https://maps.gstatic.com/mapfiles/place_api/icons/v1/png_71/generic_business-71.png",
            "name": "Africar",
            "photos": null,
            "place_id": "ChIJU_TYeoVspw0RI23aSZR1zDI",
            "rating": null,
            "reference": "ChIJU_TYeoVspw0RI23aSZR1zDI",
            "scope": "MEANZ TEST",
            "types": [
                "car_rental",
                "point_of_interest",
                "establishment"
            ],
            "user_ratings_total": null,
            "vicinity": "Angle, Rue Oued Sebou, Rabat ",
            "opening_hours": null
        },
        {
            "business_status": "OPERATIONAL",
            "geometry": {
                "location": {
                    "lat": 33.9824027,
                    "lng": -6.821586099999999
                },
                "viewport": {
                    "northeast": {
                        "lat": 33.98373283029151,
                        "lng": -6.820263319708498
                    },
                    "southwest": {
                        "lat": 33.98103486970851,
                        "lng": -6.822961280291501
                    }
                }
            },
            "icon": "https://maps.gstatic.com/mapfiles/place_api/icons/v1/png_71/generic_business-71.png",
            "name": "Agdim Car",
            "photos": null,
            "place_id": "ChIJo-cWnjZrpw0RysdTXbieaig",
            "rating": null,
            "reference": "ChIJo-cWnjZrpw0RysdTXbieaig",
            "scope": "MEANZ TEST",
            "types": [
                "car_rental",
                "point_of_interest",
                "establishment"
            ],
            "user_ratings_total": null,
            "vicinity": "Av Houmane Fetouaki, N° 457 bis Rue 21, Rabat ",
            "opening_hours": null
        },
        {
            "business_status": "OPERATIONAL",
            "geometry": {
                "location": {
                    "lat": 33.9846713,
                    "lng": -6.8150844
                },
                "viewport": {
                    "northeast": {
                        "lat": 33.9860028302915,
                        "lng": -6.813767019708497
                    },
                    "southwest": {
                        "lat": 33.9833048697085,
                        "lng": -6.816464980291502
                    }
                }
            },
            "icon": "https://maps.gstatic.com/mapfiles/place_api/icons/v1/png_71/generic_business-71.png",
            "name": "Agdim Car",
            "photos": null,
            "place_id": "ChIJJU0QZfJrpw0Rx8ixVVAtx38",
            "rating": null,
            "reference": "ChIJJU0QZfJrpw0Rx8ixVVAtx38",
            "scope": "MEANZ TEST",
            "types": [
                "car_rental",
                "point_of_interest",
                "establishment"
            ],
            "user_ratings_total": null,
            "vicinity": "457 bis Rue 21, Rabat ",
            "opening_hours": null
        },
        {
            "business_status": "OPERATIONAL",
            "geometry": {
                "location": {
                    "lat": 33.9714832,
                    "lng": -6.850113400000001
                },
                "viewport": {
                    "northeast": {
                        "lat": 33.9728979302915,
                        "lng": -6.848845669708499
                    },
                    "southwest": {
                        "lat": 33.9701999697085,
                        "lng": -6.851543630291504
                    }
                }
            },
            "icon": "https://maps.gstatic.com/mapfiles/place_api/icons/v1/png_71/generic_business-71.png",
            "name": "Agence de location voiture Rabat Agdal",
            "photos": [
                {
                    "height": 442,
                    "photo_reference": "ATtYBwIsNEE1SjHUsVQ3vkx9Q3KyX9my_6zErMLXyC_E116TqXtDEoT_SHlwWNpXgw6aj3KBCkV6RUOR245rVflql2p3safEO26iCh9joPYEN3f7YznprjtE2zb2I_WY5G0a0P3_jwVJC3SU2z8CfOeBp-isCWrB5B3SOIwK0QW7q-Xe1vyO",
                    "width": 468
                }
            ],
            "place_id": "ChIJf5xsNXZppw0RqMFEK9oVmYw",
            "rating": 3.0,
            "reference": "ChIJf5xsNXZppw0RqMFEK9oVmYw",
            "scope": "MEANZ TEST",
            "types": [
                "car_rental",
                "null",
                "point_of_interest",
                "null",
                "establishment"
            ],
            "user_ratings_total": 8,
            "vicinity": "Rabat ",
            "opening_hours": {
                "open_now": true
            }
        },
        {
            "business_status": "OPERATIONAL",
            "geometry": {
                "location": {
                    "lat": 33.982414,
                    "lng": -6.881528200000001
                },
                "viewport": {
                    "northeast": {
                        "lat": 33.9837410302915,
                        "lng": -6.880152019708498
                    },
                    "southwest": {
                        "lat": 33.9810430697085,
                        "lng": -6.882849980291502
                    }
                }
            },
            "icon": "https://maps.gstatic.com/mapfiles/place_api/icons/v1/png_71/generic_business-71.png",
            "name": "Aglili car",
            "photos": [
                {
                    "height": 2576,
                    "photo_reference": "ATtYBwLZTvGfwaQ0-5MF8xUFGdGI8776j1I7n2XSzcVqorQwtjPShYMWfExqYNwYhkSdDDHVwNtsQh0Ue_SLZirDmLVfLp8rE0VT9bQ9Zix1F_y6E6u8oVUCmZzrmDyhJg1eCwTJOwV6p2X32dvkgqqebtJ-GNmXvk1Gdrq2Skls2Sc0XKt8",
                    "width": 1932
                }
            ],
            "place_id": "ChIJoxcEh6Jtpw0RxUQ67oTn1VU",
            "rating": null,
            "reference": "ChIJoxcEh6Jtpw0RxUQ67oTn1VU",
            "scope": "MEANZ TEST",
            "types": [
                "car_rental",
                "point_of_interest",
                "establishment"
            ],
            "user_ratings_total": null,
            "vicinity": "Rabat ",
            "opening_hours": {
                "open_now": true
            }
        },
        {
            "business_status": "OPERATIONAL",
            "geometry": {
                "location": {
                    "lat": 33.995774,
                    "lng": -6.8134024
                },
                "viewport": {
                    "northeast": {
                        "lat": 33.99712153029149,
                        "lng": -6.812051869708498
                    },
                    "southwest": {
                        "lat": 33.99442356970849,
                        "lng": -6.814749830291503
                    }
                }
            },
            "icon": "https://maps.gstatic.com/mapfiles/place_api/icons/v1/png_71/generic_business-71.png",
            "name": "Ahlal Car",
            "photos": [
                {
                    "height": 438,
                    "photo_reference": "ATtYBwKuNN7CXsoPeVpL7HGKV7KEr2HcmWwY8njOzAISu5AGTsDnKnmiRcGtsE0ZMPJUL3LBSnsAJZw0q1Dw35eWoaj-S6N4Teq9lY-5dFaFPGwNqfvzlgL7DJ4YQtSr6qHbfNemToFx20dPYFYQRDfyP3sw1BGmJPrfzA2IubLjsyYX0TuS",
                    "width": 720
                }
            ],
            "place_id": "ChIJjfH41oNrpw0R_MJ4orev_CA",
            "rating": null,
            "reference": "ChIJjfH41oNrpw0R_MJ4orev_CA",
            "scope": "MEANZ TEST",
            "types": [
                "car_rental",
                "point_of_interest",
                "establishment"
            ],
            "user_ratings_total": null,
            "vicinity": "Bloc 3 N° 17 Youssofia est, Rabat ",
            "opening_hours": {
                "open_now": true
            }
        },
        {
            "business_status": "OPERATIONAL",
            "geometry": {
                "location": {
                    "lat": 34.01248539999999,
                    "lng": -6.849441199999999
                },
                "viewport": {
                    "northeast": {
                        "lat": 34.0138859802915,
                        "lng": -6.848125969708498
                    },
                    "southwest": {
                        "lat": 34.0111880197085,
                        "lng": -6.850823930291502
                    }
                }
            },
            "icon": "https://maps.gstatic.com/mapfiles/place_api/icons/v1/png_71/generic_business-71.png",
            "name": "Alicante Car",
            "photos": [
                {
                    "height": 503,
                    "photo_reference": "ATtYBwIlN42jDdXvOidDFrC6sfArwmmNwvL970F7KBLseDlQPe56jM_EotscwHyiDhibcIC_AEUqxhQ1BjHtq4q7JhCpDD3hsoOPmrHFmlzerv-sTkSxJ7PfA5wdMoMR9SIEboYwmMGYBsIjKR8YHvC38CxRoPQT1OBOu9EcBKCNCiyqnsK-",
                    "width": 960
                }
            ],
            "place_id": "ChIJYcx8kzttpw0RH1qoGpL_xYo",
            "rating": null,
            "reference": "ChIJYcx8kzttpw0RH1qoGpL_xYo",
            "scope": "MEANZ TEST",
            "types": [
                "car_rental",
                "point_of_interest",
                "establishment"
            ],
            "user_ratings_total": null,
            "vicinity": "429, Av Hassan II, Mag n°34, Rabat ",
            "opening_hours": {
                "open_now": false
            }
        },
        {
            "business_status": "OPERATIONAL",
            "geometry": {
                "location": {
                    "lat": 33.991189,
                    "lng": -6.867735000000001
                },
                "viewport": {
                    "northeast": {
                        "lat": 33.9925119802915,
                        "lng": -6.866339769708498
                    },
                    "southwest": {
                        "lat": 33.9898140197085,
                        "lng": -6.869037730291502
                    }
                }
            },
            "icon": "https://maps.gstatic.com/mapfiles/place_api/icons/v1/png_71/generic_business-71.png",
            "name": "Amine",
            "photos": null,
            "place_id": "ChIJR4T5OrBtpw0R-lIB64jGYak",
            "rating": null,
            "reference": "ChIJR4T5OrBtpw0R-lIB64jGYak",
            "scope": "MEANZ TEST",
            "types": [
                "car_rental",
                "point_of_interest",
                "establishment"
            ],
            "user_ratings_total": null,
            "vicinity": "Avenue Al Fadila, Rabat ",
            "opening_hours": null
        },
        {
            "business_status": "OPERATIONAL",
            "geometry": {
                "location": {
                    "lat": 33.9588679,
                    "lng": -6.8642656
                },
                "viewport": {
                    "northeast": {
                        "lat": 33.9602179802915,
                        "lng": -6.862915419708498
                    },
                    "southwest": {
                        "lat": 33.9575200197085,
                        "lng": -6.865613380291502
                    }
                }
            },
            "icon": "https://maps.gstatic.com/mapfiles/place_api/icons/v1/png_71/generic_business-71.png",
            "name": "Amstel Car",
            "photos": [
                {
                    "height": 2704,
                    "photo_reference": "ATtYBwJtA4W0Kv44cZjCRuxJgy8QOw_nzmQ1Y-beP1L5de3lX9uL-kTzT5OGx8-Kxv9PnCE3b4PVipieVk8cEpy5dw2TyJ1Vb-zRmly-zGN_j2ZbxY4VkL8EUEij0rid4urN20m55kDbtrXl59cAuUMrwGbl7vOwnYHYCv2-kFCSx3G3Hqp6",
                    "width": 3202
                }
            ],
            "place_id": "ChIJtdFT7Y5spw0RpQMVVXbud5w",
            "rating": 5.0,
            "reference": "ChIJtdFT7Y5spw0RpQMVVXbud5w",
            "scope": "MEANZ TEST",
            "types": [
                "car_rental",
                "point_of_interest",
                "establishment"
            ],
            "user_ratings_total": 21,
            "vicinity": "Villa 9K4, Rue Annajd Bureau S1, Rabat ",
            "opening_hours": {
                "open_now": false
            }
        },
        {
            "business_status": "OPERATIONAL",
            "geometry": {
                "location": {
                    "lat": 34.0022661,
                    "lng": -6.867168899999999
                },
                "viewport": {
                    "northeast": {
                        "lat": 34.0036029802915,
                        "lng": -6.865831119708497
                    },
                    "southwest": {
                        "lat": 34.0009050197085,
                        "lng": -6.868529080291502
                    }
                }
            },
            "icon": "https://maps.gstatic.com/mapfiles/place_api/icons/v1/png_71/generic_business-71.png",
            "name": "Aquarius Car",
            "photos": [
                {
                    "height": 1000,
                    "photo_reference": "ATtYBwJihVyX1bjJpGGnHb57679Yx7FSqOOEJ1r3VtYtFNLlTdY_Sz-ZfGwfoF5s5CHPQ0NJnke5D_eEjxGlVH9ajSYv1ONBiX0xJ77zoICPTm0BYR4TPiODp63PiEVCPJJqYsDexzbZjciAscw-0fecIM7BxGtG_1XJe-9z8XaYk6wsNuSN",
                    "width": 1600
                }
            ],
            "place_id": "ChIJdya8Yfdspw0RbhdINef1AxY",
            "rating": 4.8,
            "reference": "ChIJdya8Yfdspw0RbhdINef1AxY",
            "scope": "MEANZ TEST",
            "types": [
                "car_rental",
                "point_of_interest",
                "establishment"
            ],
            "user_ratings_total": 4,
            "vicinity": "Rabat ",
            "opening_hours": {
                "open_now": true
            }
        },
        {
            "business_status": "OPERATIONAL",
            "geometry": {
                "location": {
                    "lat": 33.97728339999999,
                    "lng": -6.889778799999999
                },
                "viewport": {
                    "northeast": {
                        "lat": 33.9786474302915,
                        "lng": -6.888447319708497
                    },
                    "southwest": {
                        "lat": 33.9759494697085,
                        "lng": -6.891145280291502
                    }
                }
            },
            "icon": "https://maps.gstatic.com/mapfiles/place_api/icons/v1/png_71/generic_business-71.png",
            "name": "Araba location",
            "photos": [
                {
                    "height": 360,
                    "photo_reference": "ATtYBwIBHUFFkwp3om0fZxrqNttUvzbIb7HFRiDObvDsGILjgI6QD349vYSLW8M7gz21YsxYwI4ePwPkJJFMN5w7-QI-2nJdh8ar85HbqbTFhF4Wxn0SC_HeTqFne2E-nz7vZE7Q0NMooKd05RamCOcb7pzfx6svhpv3xoP2PFHKdJRmeakf",
                    "width": 640
                }
            ],
            "place_id": "ChIJjwNrhDNtpw0RVZ4kztROooA",
            "rating": 5.0,
            "reference": "ChIJjwNrhDNtpw0RVZ4kztROooA",
            "scope": "MEANZ TEST",
            "types": [
                "car_rental",
                "point_of_interest",
                "establishment"
            ],
            "user_ratings_total": 1,
            "vicinity": "hay el menzeh, Rabat ",
            "opening_hours": null
        },
        {
            "business_status": "OPERATIONAL",
            "geometry": {
                "location": {
                    "lat": 33.98515800000001,
                    "lng": -6.822144000000001
                },
                "viewport": {
                    "northeast": {
                        "lat": 33.9864810802915,
                        "lng": -6.820775619708497
                    },
                    "southwest": {
                        "lat": 33.98378311970851,
                        "lng": -6.823473580291502
                    }
                }
            },
            "icon": "https://maps.gstatic.com/mapfiles/place_api/icons/v1/png_71/generic_business-71.png",
            "name": "Arona Car",
            "photos": [
                {
                    "height": 3264,
                    "photo_reference": "ATtYBwLgcC2d9yaxL18g1hjUZun8QGOz2CvdB_q0V4Q9kpnNgwav6l4XT3lrfiCVWKW1LtfrntRvHvKLIQ7KaGrIOulKU1SraJQG8TlMWHifad5LzESLGceU1ehEbFkMPBjGdwKrQpVqMF9Eil1cHSNz4FiaUh8VkZ0o5F1MyJL3zK24U9Gt",
                    "width": 2448
                }
            ],
            "place_id": "ChIJcULGjEJrpw0R5jgMkTt5hcs",
            "rating": 4.0,
            "reference": "ChIJcULGjEJrpw0R5jgMkTt5hcs",
            "scope": "MEANZ TEST",
            "types": [
                "car_rental",
                "point_of_interest",
                "establishment"
            ],
            "user_ratings_total": 5,
            "vicinity": "Rabat ",
            "opening_hours": {
                "open_now": true
            }
        },
        {
            "business_status": "OPERATIONAL",
            "geometry": {
                "location": {
                    "lat": 34.0072903,
                    "lng": -6.8484015
                },
                "viewport": {
                    "northeast": {
                        "lat": 34.0086642802915,
                        "lng": -6.846980569708497
                    },
                    "southwest": {
                        "lat": 34.0059663197085,
                        "lng": -6.849678530291501
                    }
                }
            },
            "icon": "https://maps.gstatic.com/mapfiles/place_api/icons/v1/png_71/generic_business-71.png",
            "name": "Assist Car",
            "photos": null,
            "place_id": "ChIJiwI5gGJspw0RsUpUrzbD1R4",
            "rating": null,
            "reference": "ChIJiwI5gGJspw0RsUpUrzbD1R4",
            "scope": "MEANZ TEST",
            "types": [
                "car_rental",
                "point_of_interest",
                "establishment"
            ],
            "user_ratings_total": null,
            "vicinity": "Rabat ",
            "opening_hours": null
        },
        {
            "business_status": "OPERATIONAL",
            "geometry": {
                "location": {
                    "lat": 33.9715952,
                    "lng": -6.8498185
                },
                "viewport": {
                    "northeast": {
                        "lat": 33.9730437302915,
                        "lng": -6.848592519708498
                    },
                    "southwest": {
                        "lat": 33.9703457697085,
                        "lng": -6.851290480291502
                    }
                }
            },
            "icon": "https://maps.gstatic.com/mapfiles/place_api/icons/v1/png_71/generic_business-71.png",
            "name": "Auto zaari",
            "photos": null,
            "place_id": "ChIJ0wyHzs5tpw0RpWdZChfq-Mg",
            "rating": 5.0,
            "reference": "ChIJ0wyHzs5tpw0RpWdZChfq-Mg",
            "scope": "MEANZ TEST",
            "types": [
                "car_rental",
                "point_of_interest",
                "establishment"
            ],
            "user_ratings_total": 1,
            "vicinity": "535 MAY EL MENZEH CYM, Rabat ",
            "opening_hours": null
        },
        {
            "business_status": "OPERATIONAL",
            "geometry": {
                "location": {
                    "lat": 33.99839339999999,
                    "lng": -6.848845799999999
                },
                "viewport": {
                    "northeast": {
                        "lat": 33.99970943029149,
                        "lng": -6.847591919708497
                    },
                    "southwest": {
                        "lat": 33.99701146970849,
                        "lng": -6.850289880291502
                    }
                }
            },
            "icon": "https://maps.gstatic.com/mapfiles/place_api/icons/v1/png_71/generic_business-71.png",
            "name": "Automotives services",
            "photos": [
                {
                    "height": 960,
                    "photo_reference": "ATtYBwLBwDU0fFnRbIBwQxgzrwK59RW2HkJAXzzDlez6SlCXJr6zYvvwVIrRWFzqRO_MDdN86BSGzdj51WwXuL6rFO5NHViYwiG56-gkOELyalcdzrg1voYaq5TG9byMz922QZ12Mio7dEJhjZIMARSZ_SwHAG3Ij3JD4tsX1IJUw7KqZ33T",
                    "width": 1280
                }
            ],
            "place_id": "ChIJZdUlWI5spw0RPDr65hFbD1I",
            "rating": 4.7,
            "reference": "ChIJZdUlWI5spw0RPDr65hFbD1I",
            "scope": "MEANZ TEST",
            "types": [
                "car_rental",
                "point_of_interest",
                "establishment"
            ],
            "user_ratings_total": 39,
            "vicinity": "65 Avenue Fal Ould Oumeir, Rabat ",
            "opening_hours": {
                "open_now": false
            }
        },
        {
            "business_status": "OPERATIONAL",
            "geometry": {
                "location": {
                    "lat": 33.98357809999999,
                    "lng": -6.812996
                },
                "viewport": {
                    "northeast": {
                        "lat": 33.98487413029149,
                        "lng": -6.811609619708498
                    },
                    "southwest": {
                        "lat": 33.9821761697085,
                        "lng": -6.814307580291501
                    }
                }
            },
            "icon": "https://maps.gstatic.com/mapfiles/place_api/icons/v1/png_71/generic_business-71.png",
            "name": "Azzam car",
            "photos": null,
            "place_id": "ChIJ73lKigBrpw0ROEtR-KU3xbQ",
            "rating": null,
            "reference": "ChIJ73lKigBrpw0ROEtR-KU3xbQ",
            "scope": "MEANZ TEST",
            "types": [
                "car_rental",
                "point_of_interest",
                "establishment"
            ],
            "user_ratings_total": null,
            "vicinity": "Unnamed Road, Rabat ",
            "opening_hours": null
        },
        {
            "business_status": "OPERATIONAL",
            "geometry": {
                "location": {
                    "lat": 33.9511834,
                    "lng": -6.8585569
                },
                "viewport": {
                    "northeast": {
                        "lat": 33.9525625802915,
                        "lng": -6.857220219708497
                    },
                    "southwest": {
                        "lat": 33.9498646197085,
                        "lng": -6.859918180291502
                    }
                }
            },
            "icon": "https://maps.gstatic.com/mapfiles/place_api/icons/v1/png_71/generic_business-71.png",
            "name": "B Cars - Agence de location de voitures",
            "photos": [
                {
                    "height": 960,
                    "photo_reference": "ATtYBwI51rFI_KVGGcKW98V6g9IL7puSal19xb1aCqzc-JUhX0jmTLCjiBr9K6fKY63qHfFuUvTF2OzhOqGhZO8wakmxS482UVH5TO8e8usBoC9xrCn4dmWXT_X-Zxo-KfQGvNzpZ3UNb_ghBbY-QevZJfUx2_EczQGsbG2F37nJqEKWMVi_",
                    "width": 1280
                }
            ],
            "place_id": "ChIJgaZfo0UTpw0RSn_8anEBsq4",
            "rating": 5.0,
            "reference": "ChIJgaZfo0UTpw0RSn_8anEBsq4",
            "scope": "MEANZ TEST",
            "types": [
                "car_rental",
                "point_of_interest",
                "establishment"
            ],
            "user_ratings_total": 5,
            "vicinity": "Sect 25 N°110 Lot Riad al Otor, Rabat ",
            "opening_hours": {
                "open_now": false
            }
        },
        {
            "business_status": "OPERATIONAL",
            "geometry": {
                "location": {
                    "lat": 33.9547572,
                    "lng": -6.871339199999999
                },
                "viewport": {
                    "northeast": {
                        "lat": 33.95613048029149,
                        "lng": -6.869966069708497
                    },
                    "southwest": {
                        "lat": 33.95343251970849,
                        "lng": -6.872664030291502
                    }
                }
            },
            "icon": "https://maps.gstatic.com/mapfiles/place_api/icons/v1/png_71/generic_business-71.png",
            "name": "BEL LOCATION",
            "photos": null,
            "place_id": "ChIJ_xtgBQgTpw0R3iTxcbxu1oQ",
            "rating": 5.0,
            "reference": "ChIJ_xtgBQgTpw0R3iTxcbxu1oQ",
            "scope": "MEANZ TEST",
            "types": [
                "car_rental",
                "point_of_interest",
                "establishment"
            ],
            "user_ratings_total": 1,
            "vicinity": "7 Rue Al Bondoq, Rabat ",
            "opening_hours": null
        },
        {
            "business_status": "OPERATIONAL",
            "geometry": {
                "location": {
                    "lat": 33.96848259999999,
                    "lng": -6.889117099999999
                },
                "viewport": {
                    "northeast": {
                        "lat": 33.9698631802915,
                        "lng": -6.887801419708497
                    },
                    "southwest": {
                        "lat": 33.96716521970851,
                        "lng": -6.890499380291501
                    }
                }
            },
            "icon": "https://maps.gstatic.com/mapfiles/place_api/icons/v1/png_71/generic_business-71.png",
            "name": "Bahhar new car",
            "photos": [
                {
                    "height": 720,
                    "photo_reference": "ATtYBwI1VSnoHg4_NPHv-XAd5t0Y2sx-SkaroaVuPL0Yk4bN79SqyJg_tkpHgcMZRexDeG0H2FBzD89DTbzAl6GaQthCqhYyoOLG23he7XkAOTs9TtlV895uSKQ4ouPKozkYI-6xiRllrdvQr8S70ZZip6Vq9mcrVJ-rz67Re60p6ZZSLjcE",
                    "width": 720
                }
            ],
            "place_id": "ChIJAcZD0TFtpw0RzmY8fKoD5Bs",
            "rating": null,
            "reference": "ChIJAcZD0TFtpw0RzmY8fKoD5Bs",
            "scope": "MEANZ TEST",
            "types": [
                "car_rental",
                "point_of_interest",
                "establishment"
            ],
            "user_ratings_total": null,
            "vicinity": "Rabat ",
            "opening_hours": null
        },
        {
            "business_status": "OPERATIONAL",
            "geometry": {
                "location": {
                    "lat": 34.0183808,
                    "lng": -6.8471752
                },
                "viewport": {
                    "northeast": {
                        "lat": 34.01976113029149,
                        "lng": -6.845830069708498
                    },
                    "southwest": {
                        "lat": 34.01706316970849,
                        "lng": -6.848528030291502
                    }
                }
            },
            "icon": "https://maps.gstatic.com/mapfiles/place_api/icons/v1/png_71/generic_business-71.png",
            "name": "Bahmad Car",
            "photos": [
                {
                    "height": 540,
                    "photo_reference": "ATtYBwIdWGSL8nCcYC5Bs8pZIdysHwLCYYahgzBXkEvAv6wMIDMpgeBIiBVYmJeH4vKuOd7RPMDjl8CuIw5Mcd-Bw7vbf0SpSO1z01YR0EcSIyxybahG6-Wo-rNQaF5NPkFalefFpJnhKg1EEdm22gPfgRAPrzYZU28vRJO7SoP0j9E1hwgi",
                    "width": 720
                }
            ],
            "place_id": "ChIJHSLdGyFtpw0R-gep-K17X94",
            "rating": null,
            "reference": "ChIJHSLdGyFtpw0R-gep-K17X94",
            "scope": "MEANZ TEST",
            "types": [
                "car_rental",
                "point_of_interest",
                "establishment"
            ],
            "user_ratings_total": null,
            "vicinity": "Avenue du Mali, Rabat ",
            "opening_hours": {
                "open_now": false
            }
        },
        {
            "business_status": "OPERATIONAL",
            "geometry": {
                "location": {
                    "lat": 34.0025848,
                    "lng": -6.850324199999999
                },
                "viewport": {
                    "northeast": {
                        "lat": 34.0039093802915,
                        "lng": -6.848943719708498
                    },
                    "southwest": {
                        "lat": 34.0012114197085,
                        "lng": -6.851641680291502
                    }
                }
            },
            "icon": "https://maps.gstatic.com/mapfiles/place_api/icons/v1/png_71/generic_business-71.png",
            "name": "Benzcar",
            "photos": [
                {
                    "height": 711,
                    "photo_reference": "ATtYBwLKSTrr-8-gaIBDPmGM5ZBJc-bl82oAK-w9R7jd2ssF4ZoEZBJiItUuTMDetSPt1snGGndMikFVvGcUIk4UFtyTzdwJoyo4gNfGtR29NmQ24uAWv7081RVlMlq6R3vZycnCiwUZKfzfz0Rzq49LNLhkF9f7uuDP-IDD_phZb5PfVevY",
                    "width": 400
                }
            ],
            "place_id": "ChIJB-X1_Sttpw0Ri1Oebr6x6wE",
            "rating": 3.4,
            "reference": "ChIJB-X1_Sttpw0Ri1Oebr6x6wE",
            "scope": "MEANZ TEST",
            "types": [
                "car_rental",
                "point_of_interest",
                "establishment"
            ],
            "user_ratings_total": 5,
            "vicinity": "Imm 72 Appt 1, شارع عقبة بن نافع, الرباط ",
            "opening_hours": {
                "open_now": false
            }
        },
        {
            "business_status": "OPERATIONAL",
            "geometry": {
                "location": {
                    "lat": 33.995864,
                    "lng": -6.847115999999999
                },
                "viewport": {
                    "northeast": {
                        "lat": 33.99719838029149,
                        "lng": -6.845760219708497
                    },
                    "southwest": {
                        "lat": 33.99450041970849,
                        "lng": -6.848458180291501
                    }
                }
            },
            "icon": "https://maps.gstatic.com/mapfiles/place_api/icons/v1/png_71/generic_business-71.png",
            "name": "Biba Car",
            "photos": [
                {
                    "height": 816,
                    "photo_reference": "ATtYBwJTxfYzDemEH6q5-GUm_627sN3hWRobaTB6z0ogwlGc4nL5jx41SM15bt80kmXEetN4lcThINkGqfJkvzdvQfKSTZ4gZM0fbYdTA7b89DhUaHP2ju8Wj93xCTFSvPXP-Dg3XaYLAMAyNyha7xkqKvMZPsguiE5yXub-Hmv-WUv8VCjC",
                    "width": 817
                }
            ],
            "place_id": "ChIJFX1SH5Bspw0RmjBra4vnIBk",
            "rating": 4.5,
            "reference": "ChIJFX1SH5Bspw0RmjBra4vnIBk",
            "scope": "MEANZ TEST",
            "types": [
                "car_rental",
                "point_of_interest",
                "establishment"
            ],
            "user_ratings_total": 8,
            "vicinity": "16, N°30 Rue Jabal Oukaïmeden, Rabat ",
            "opening_hours": {
                "open_now": false
            }
        },
        {
            "business_status": "OPERATIONAL",
            "geometry": {
                "location": {
                    "lat": 34.0038218,
                    "lng": -6.848884300000001
                },
                "viewport": {
                    "northeast": {
                        "lat": 34.00514888029149,
                        "lng": -6.847507669708497
                    },
                    "southwest": {
                        "lat": 34.00245091970849,
                        "lng": -6.850205630291502
                    }
                }
            },
            "icon": "https://maps.gstatic.com/mapfiles/place_api/icons/v1/png_71/generic_business-71.png",
            "name": "Black Series Location",
            "photos": null,
            "place_id": "ChIJn7yXBIlspw0Ra70wRvThDC0",
            "rating": 5.0,
            "reference": "ChIJn7yXBIlspw0Ra70wRvThDC0",
            "scope": "MEANZ TEST",
            "types": [
                "car_rental",
                "point_of_interest",
                "establishment"
            ],
            "user_ratings_total": 1,
            "vicinity": "Avenue Oqba Ibn Naafi, Rabat ",
            "opening_hours": {
                "open_now": true
            }
        },
        {
            "business_status": "OPERATIONAL",
            "geometry": {
                "location": {
                    "lat": 33.997031,
                    "lng": -6.870969000000001
                },
                "viewport": {
                    "northeast": {
                        "lat": 33.9983772302915,
                        "lng": -6.869614919708498
                    },
                    "southwest": {
                        "lat": 33.9956792697085,
                        "lng": -6.872312880291502
                    }
                }
            },
            "icon": "https://maps.gstatic.com/mapfiles/place_api/icons/v1/png_71/generic_business-71.png",
            "name": "Bouznika car",
            "photos": [
                {
                    "height": 1558,
                    "photo_reference": "ATtYBwI0XKRf1Swh4vRfgKyw8FetJdbjHFMLcqZihoVlIwo3ORuYk7a04UWWq6YP-eKbLPnzQVU_H7bi0dBgBrKJ4BykFCPGiYL67plSxAvJSQeu5YAQoCNv7miMqvvmp3gvKMe-Pl9ZSNbppaxZzTjzxKEpXmzaERSP2yprjzpPRVgwpbXO",
                    "width": 1558
                }
            ],
            "place_id": "ChIJ6x9yzXdtpw0Rw6wHFRVoL9o",
            "rating": 5.0,
            "reference": "ChIJ6x9yzXdtpw0Rw6wHFRVoL9o",
            "scope": "MEANZ TEST",
            "types": [
                "car_rental",
                "point_of_interest",
                "establishment"
            ],
            "user_ratings_total": 1,
            "vicinity": "4 Avenue Assalam, Bouznika ",
            "opening_hours": {
                "open_now": false
            }
        },
        {
            "business_status": "OPERATIONAL",
            "geometry": {
                "location": {
                    "lat": 33.97266799999999,
                    "lng": -6.883555999999999
                },
                "viewport": {
                    "northeast": {
                        "lat": 33.97386658029149,
                        "lng": -6.882338619708497
                    },
                    "southwest": {
                        "lat": 33.9711686197085,
                        "lng": -6.885036580291501
                    }
                }
            },
            "icon": "https://maps.gstatic.com/mapfiles/place_api/icons/v1/png_71/generic_business-71.png",
            "name": "Brikchi Tours Rent Cars",
            "photos": [
                {
                    "height": 1000,
                    "photo_reference": "ATtYBwLsfzzHeJ5m4jCPdbhIv9VQe38Nj2S3Lw8LTfPRjsnhuC0bQi9Yi5DTqro8BMwwLRIQrY_07zvS8jRcFVT4gdXPyUE-dOhVMxuEZQHkboCh52endQBdRBW6MJk_EKk3WeMH-mcOAr7Xgo0tYdNfy9u8QNbH3t9yxB5tQk4ltcvl4arj",
                    "width": 1000
                }
            ],
            "place_id": "ChIJCXeA_CVtpw0RxkovYPq4qQE",
            "rating": 5.0,
            "reference": "ChIJCXeA_CVtpw0RxkovYPq4qQE",
            "scope": "MEANZ TEST",
            "types": [
                "car_rental",
                "point_of_interest",
                "establishment"
            ],
            "user_ratings_total": 1,
            "vicinity": "Imm 6 - Magasin 5 - Al Massira V - C.Y.M, Rabat ",
            "opening_hours": null
        },
        {
            "business_status": "OPERATIONAL",
            "geometry": {
                "location": {
                    "lat": 34.016409,
                    "lng": -6.835715200000001
                },
                "viewport": {
                    "northeast": {
                        "lat": 34.0178036302915,
                        "lng": -6.834220469708498
                    },
                    "southwest": {
                        "lat": 34.0151056697085,
                        "lng": -6.836918430291503
                    }
                }
            },
            "icon": "https://maps.gstatic.com/mapfiles/place_api/icons/v1/png_71/generic_business-71.png",
            "name": "Budget Car",
            "photos": [
                {
                    "height": 768,
                    "photo_reference": "ATtYBwKMNC5jpKZw9gKXr2zVCex1V6EbUeGiQcnNarlY_SMfH_u4YO7T-rkKG4z_ak7d51r8HGaOsnkWqNsKRuoCcBA4c9LM-ZENtzEc2mcnE3jT5Fyoxt-2GlUx4tlUZArxsReZgytGkxI4j42Y5y_nDuXg6-DaJAyYmM8NBO4SbBGprSJG",
                    "width": 1024
                }
            ],
            "place_id": "ChIJQQUnfXhspw0RAxKekCEvg0s",
            "rating": 3.8,
            "reference": "ChIJQQUnfXhspw0RAxKekCEvg0s",
            "scope": "MEANZ TEST",
            "types": [
                "car_rental",
                "point_of_interest",
                "establishment"
            ],
            "user_ratings_total": 17,
            "vicinity": "GARE ONCF AVENUE MOHAMED V, Rabat ",
            "opening_hours": {
                "open_now": false
            }
        },
        {
            "business_status": "OPERATIONAL",
            "geometry": {
                "location": {
                    "lat": 34.0119485,
                    "lng": -6.8528121
                },
                "viewport": {
                    "northeast": {
                        "lat": 34.0133957302915,
                        "lng": -6.851524819708498
                    },
                    "southwest": {
                        "lat": 34.0106977697085,
                        "lng": -6.854222780291503
                    }
                }
            },
            "icon": "https://maps.gstatic.com/mapfiles/place_api/icons/v1/png_71/generic_business-71.png",
            "name": "Business-Ligne-Tour",
            "photos": null,
            "place_id": "ChIJvboRQhltpw0RSPC3cYEL0ok",
            "rating": null,
            "reference": "ChIJvboRQhltpw0RSPC3cYEL0ok",
            "scope": "MEANZ TEST",
            "types": [
                "car_rental",
                "point_of_interest",
                "establishment"
            ],
            "user_ratings_total": null,
            "vicinity": "Residence Bab Tamesna,RDC,N°12, Rue Abdelaziz Boutaleb, الرباط ",
            "opening_hours": {
                "open_now": false
            }
        },
        {
            "business_status": "OPERATIONAL",
            "geometry": {
                "location": {
                    "lat": 33.995879,
                    "lng": -6.8471224
                },
                "viewport": {
                    "northeast": {
                        "lat": 33.99725738029149,
                        "lng": -6.845787119708498
                    },
                    "southwest": {
                        "lat": 33.9945594197085,
                        "lng": -6.848485080291502
                    }
                }
            },
            "icon": "https://maps.gstatic.com/mapfiles/place_api/icons/v1/png_71/generic_business-71.png",
            "name": "CARMEL CAR",
            "photos": null,
            "place_id": "ChIJC0ZjQr5tpw0RVy9QwrzR3ms",
            "rating": 4.2,
            "reference": "ChIJC0ZjQr5tpw0RVy9QwrzR3ms",
            "scope": "MEANZ TEST",
            "types": [
                "car_rental",
                "point_of_interest",
                "establishment"
            ],
            "user_ratings_total": 5,
            "vicinity": "39 Rue Jabal Oukaïmeden, Rabat ",
            "opening_hours": {
                "open_now": false
            }
        },
        {
            "business_status": "OPERATIONAL",
            "geometry": {
                "location": {
                    "lat": 34.00221090000001,
                    "lng": -6.847209100000001
                },
                "viewport": {
                    "northeast": {
                        "lat": 34.0035531302915,
                        "lng": -6.845880919708498
                    },
                    "southwest": {
                        "lat": 34.0008551697085,
                        "lng": -6.848578880291503
                    }
                }
            },
            "icon": "https://maps.gstatic.com/mapfiles/place_api/icons/v1/png_71/generic_business-71.png",
            "name": "CNG Location Voiture Rabat Agdal",
            "photos": [
                {
                    "height": 1000,
                    "photo_reference": "ATtYBwLR1N31wl2-8888BdieWAhtrtIndsuNMh2fJA-iAG6RaSj2vqOVigAa_z6N8ZBs2svkTKPVlkhrgu4upnylRA8N7WoikJib6sCqgqHoXIQzQqLDjv5CB1ilLL7NRDo5FTLNLKiC4VP9m3RoJRwSQd8fjnTdr7iAX_fdSj2LA-IFKi8q",
                    "width": 1778
                }
            ],
            "place_id": "ChIJxWfHyYhspw0RFYLVrkaQGoY",
            "rating": 4.9,
            "reference": "ChIJxWfHyYhspw0RFYLVrkaQGoY",
            "scope": "MEANZ TEST",
            "types": [
                "car_rental",
                "point_of_interest",
                "establishment"
            ],
            "user_ratings_total": 28,
            "vicinity": "Rue Oued Sebou, Rabat ",
            "opening_hours": {
                "open_now": true
            }
        },
        {
            "business_status": "OPERATIONAL",
            "geometry": {
                "location": {
                    "lat": 33.9301713,
                    "lng": -6.890444599999999
                },
                "viewport": {
                    "northeast": {
                        "lat": 33.9315334302915,
                        "lng": -6.889115969708497
                    },
                    "southwest": {
                        "lat": 33.9288354697085,
                        "lng": -6.891813930291502
                    }
                }
            },
            "icon": "https://maps.gstatic.com/mapfiles/place_api/icons/v1/png_71/generic_business-71.png",
            "name": "COLINE CAR",
            "photos": null,
            "place_id": "ChIJ3Tl3Ce8Spw0R9JX2Njyd66U",
            "rating": 5.0,
            "reference": "ChIJ3Tl3Ce8Spw0R9JX2Njyd66U",
            "scope": "MEANZ TEST",
            "types": [
                "car_rental",
                "point_of_interest",
                "establishment"
            ],
            "user_ratings_total": 2,
            "vicinity": "Avenue Tarik Ibn Ziad, Témara ",
            "opening_hours": null
        },
        {
            "business_status": "OPERATIONAL",
            "geometry": {
                "location": {
                    "lat": 34.015554,
                    "lng": -6.850598000000001
                },
                "viewport": {
                    "northeast": {
                        "lat": 34.0169079802915,
                        "lng": -6.849276869708497
                    },
                    "southwest": {
                        "lat": 34.0142100197085,
                        "lng": -6.851974830291502
                    }
                }
            },
            "icon": "https://maps.gstatic.com/mapfiles/place_api/icons/v1/png_71/generic_business-71.png",
            "name": "Car Rental Transatlic towers",
            "photos": [
                {
                    "height": 3096,
                    "photo_reference": "ATtYBwIoeN5QJaugeDRhXQoDtRON1p2-i0V261J6S7AucVwYS08GqLEzWdEmuflv2fygTWcM8RtLjhjqJi_8Fj-JHxALo3x6GYsIplbHWgSg_8O1mij-N-Hf54mFks7D52n3qiMv2ojCyWRhS4SmqTVfuYtCnjTGuGRmbyryjRV3kCR80Xjn",
                    "width": 4128
                }
            ],
            "place_id": "ChIJWfHBLWRspw0RwZbloSMbyLc",
            "rating": null,
            "reference": "ChIJWfHBLWRspw0RwZbloSMbyLc",
            "scope": "MEANZ TEST",
            "types": [
                "car_rental",
                "point_of_interest",
                "establishment"
            ],
            "user_ratings_total": null,
            "vicinity": "avenue Madagascar angle rue siam , res el ouiam app 27 , 2 ème étage ,, rabat ., Rabat ",
            "opening_hours": {
                "open_now": true
            }
        },
        {
            "business_status": "OPERATIONAL",
            "geometry": {
                "location": {
                    "lat": 33.98593789999999,
                    "lng": -6.869044799999999
                },
                "viewport": {
                    "northeast": {
                        "lat": 33.98738693029149,
                        "lng": -6.867918919708498
                    },
                    "southwest": {
                        "lat": 33.98468896970849,
                        "lng": -6.870616880291503
                    }
                }
            },
            "icon": "https://maps.gstatic.com/mapfiles/place_api/icons/v1/png_71/generic_business-71.png",
            "name": "CarGo RABAT",
            "photos": null,
            "place_id": "ChIJWRx8FZhspw0RUqGWNRPt__o",
            "rating": 5.0,
            "reference": "ChIJWRx8FZhspw0RUqGWNRPt__o",
            "scope": "MEANZ TEST",
            "types": [
                "car_rental",
                "point_of_interest",
                "establishment"
            ],
            "user_ratings_total": 1,
            "vicinity": "38 route De Casablanca Zone Industrielle Vita, Rabat ",
            "opening_hours": {
                "open_now": false
            }
        },
        {
            "business_status": "OPERATIONAL",
            "geometry": {
                "location": {
                    "lat": 33.9920981,
                    "lng": -6.882498399999999
                },
                "viewport": {
                    "northeast": {
                        "lat": 33.9934358802915,
                        "lng": -6.881138019708498
                    },
                    "southwest": {
                        "lat": 33.9907379197085,
                        "lng": -6.883835980291503
                    }
                }
            },
            "icon": "https://maps.gstatic.com/mapfiles/place_api/icons/v1/png_71/generic_business-71.png",
            "name": "Carsup Cars",
            "photos": [
                {
                    "height": 709,
                    "photo_reference": "ATtYBwIgjDJy6hh6X9OmWkYIqaaxZKpeTpl6_Ijgbr-F5OIRbT_clmkvmg3MEZQ3ZPjmE665lmbR_NfUMF9czAIQNgAlOYH6165KMoe4SQsilUy-d_QkvZdVB-gTy7V3_1YD2uLI9PNapnIuwlZMHGUznMGd9FunfaDoifAyp3PFA9ZO8zqG",
                    "width": 1831
                }
            ],
            "place_id": "ChIJvwc0jhxtpw0R4VOgPE16fuY",
            "rating": 5.0,
            "reference": "ChIJvwc0jhxtpw0R4VOgPE16fuY",
            "scope": "MEANZ TEST",
            "types": [
                "car_rental",
                "point_of_interest",
                "establishment"
            ],
            "user_ratings_total": 4,
            "vicinity": "Res assabah Ilot 1 gr carsup cars 3 Avenue Moustapha Assayeh, Rabat ",
            "opening_hours": {
                "open_now": true
            }
        },
        {
            "business_status": "OPERATIONAL",
            "geometry": {
                "location": {
                    "lat": 34.003461,
                    "lng": -6.848806
                },
                "viewport": {
                    "northeast": {
                        "lat": 34.0048398802915,
                        "lng": -6.847370569708498
                    },
                    "southwest": {
                        "lat": 34.0021419197085,
                        "lng": -6.850068530291503
                    }
                }
            },
            "icon": "https://maps.gstatic.com/mapfiles/place_api/icons/v1/png_71/generic_business-71.png",
            "name": "Crowd Cars (Siège)",
            "photos": [
                {
                    "height": 469,
                    "photo_reference": "ATtYBwLVMU_WItDnhC6wpWME-3X06rVyJe3CKZWR5VgVTjroNCrceLxhz1vTPgpNFbHe8YHgqkhTvjCFh40DyW7wLkBqJQskindI0_3xWJvyZEgtN4XHYhRA7nKzeYgmusBRprXyOrjGCDrhnpHp0qn4wckupv8uVrvd0o01JOXWCvWElPGQ",
                    "width": 750
                }
            ],
            "place_id": "ChIJhVg9HIlspw0RqnXH7rWJfOA",
            "rating": 2.3,
            "reference": "ChIJhVg9HIlspw0RqnXH7rWJfOA",
            "scope": "MEANZ TEST",
            "types": [
                "car_rental",
                "point_of_interest",
                "establishment"
            ],
            "user_ratings_total": 3,
            "vicinity": "Avenue Oqba Imm 77 N° 10 Agdal, Rabat ",
            "opening_hours": {
                "open_now": false
            }
        },
        {
            "business_status": "OPERATIONAL",
            "geometry": {
                "location": {
                    "lat": 34.013725,
                    "lng": -6.851829999999999
                },
                "viewport": {
                    "northeast": {
                        "lat": 34.01501033029149,
                        "lng": -6.850424019708496
                    },
                    "southwest": {
                        "lat": 34.0123123697085,
                        "lng": -6.853121980291501
                    }
                }
            },
            "icon": "https://maps.gstatic.com/mapfiles/place_api/icons/v1/png_71/generic_business-71.png",
            "name": "Cukur car",
            "photos": [
                {
                    "height": 430,
                    "photo_reference": "ATtYBwLYpvhyi5PJ9_-G3RyCjhIaxkWbsMw-TodetsaXPZi3rZS1gA6pyVOlNUP8oynCf-ecneIKEk6gdoNz1HhAwbxflF_R-vo6yQPul8rLh3XtFb740OxiLCV28TftUHwda9DarrtoX_LQN9DdZMH6vlIVfTpYQaGECHe9l675kqIljd-l",
                    "width": 764
                }
            ],
            "place_id": "ChIJNddBVlptpw0R_unn7N0apZY",
            "rating": 4.7,
            "reference": "ChIJNddBVlptpw0R_unn7N0apZY",
            "scope": "MEANZ TEST",
            "types": [
                "car_rental",
                "point_of_interest",
                "establishment"
            ],
            "user_ratings_total": 6,
            "vicinity": "Avenue Madagascar, Rabat ",
            "opening_hours": {
                "open_now": true
            }
        },
        {
            "business_status": "OPERATIONAL",
            "geometry": {
                "location": {
                    "lat": 33.980539,
                    "lng": -6.8814558
                },
                "viewport": {
                    "northeast": {
                        "lat": 33.9818579302915,
                        "lng": -6.880108319708498
                    },
                    "southwest": {
                        "lat": 33.9791599697085,
                        "lng": -6.882806280291502
                    }
                }
            },
            "icon": "https://maps.gstatic.com/mapfiles/place_api/icons/v1/png_71/generic_business-71.png",
            "name": "DIDOYAS TOURS",
            "photos": [
                {
                    "height": 4160,
                    "photo_reference": "ATtYBwKzxv8OW7TsP0N7iIWa-5KVJaWM6J5Pm6SDkd0IfTw3J-pfjzGWIJq--LsG9OEjqm7PM5cr_3myK81If9OeKihfAqHcilIsC16DmRmIFNwXI8Uf242IxgWO4bKE8NVcOA7DUaAuiFBwIbDvGUOI-9esmAy-78JmHKumE-_TpPoPuxqb",
                    "width": 3120
                }
            ],
            "place_id": "ChIJwcVQH4drpw0RVrPrIrgxIiA",
            "rating": 5.0,
            "reference": "ChIJwcVQH4drpw0RVrPrIrgxIiA",
            "scope": "MEANZ TEST",
            "types": [
                "car_rental",
                "point_of_interest",
                "establishment"
            ],
            "user_ratings_total": 3,
            "vicinity": "Rabat ",
            "opening_hours": {
                "open_now": true
            }
        },
        {
            "business_status": "OPERATIONAL",
            "geometry": {
                "location": {
                    "lat": 33.9750103,
                    "lng": -6.877406
                },
                "viewport": {
                    "northeast": {
                        "lat": 33.97633998721424,
                        "lng": -6.876025346288819
                    },
                    "southwest": {
                        "lat": 33.97364202663124,
                        "lng": -6.878723306871823
                    }
                }
            },
            "icon": "https://maps.gstatic.com/mapfiles/place_api/icons/v1/png_71/generic_business-71.png",
            "name": "DODGE",
            "photos": null,
            "place_id": "ChIJM4A5fdhspw0RYHUINKHWWgo",
            "rating": null,
            "reference": "ChIJM4A5fdhspw0RYHUINKHWWgo",
            "scope": "MEANZ TEST",
            "types": [
                "car_rental",
                "null",
                "establishment"
            ],
            "user_ratings_total": null,
            "vicinity": "Rabat ",
            "opening_hours": null
        },
        {
            "business_status": "OPERATIONAL",
            "geometry": {
                "location": {
                    "lat": 33.99652099999999,
                    "lng": -6.845631999999997
                },
                "viewport": {
                    "northeast": {
                        "lat": 33.9978049302915,
                        "lng": -6.844251019708497
                    },
                    "southwest": {
                        "lat": 33.9951069697085,
                        "lng": -6.846948980291502
                    }
                }
            },
            "icon": "https://maps.gstatic.com/mapfiles/place_api/icons/v1/png_71/generic_business-71.png",
            "name": "DR AUTO",
            "photos": null,
            "place_id": "ChIJ7fTcAZBspw0RAWY7oYv386g",
            "rating": 5.0,
            "reference": "ChIJ7fTcAZBspw0RAWY7oYv386g",
            "scope": "MEANZ TEST",
            "types": [
                "car_rental",
                "point_of_interest",
                "establishment"
            ],
            "user_ratings_total": 1,
            "vicinity": "Apt 16, 16 Rue Jabal Oukaïmeden, Rabat ",
            "opening_hours": {
                "open_now": false
            }
        },
        {
            "business_status": "OPERATIONAL",
            "geometry": {
                "location": {
                    "lat": 33.975024,
                    "lng": -6.88909
                },
                "viewport": {
                    "northeast": {
                        "lat": 33.9763995302915,
                        "lng": -6.887714069708498
                    },
                    "southwest": {
                        "lat": 33.9737015697085,
                        "lng": -6.890412030291503
                    }
                }
            },
            "icon": "https://maps.gstatic.com/mapfiles/place_api/icons/v1/png_71/generic_business-71.png",
            "name": "Deal Car",
            "photos": [
                {
                    "height": 3120,
                    "photo_reference": "ATtYBwKLxJetci7u6bY0p-5pzR5cN9akYjcVFkzPj69LagC91tpZ_7ZKBkv-_FXcoP7Ut8RNLwLlrWBMDi_IkSNOX5IJrPmNTSVrKMVMnIjqyCtlmJCwCiNnVbK3BUuPF5leNY-GP-LDTwF0FhG0ovQwthEdPc8SACi-64lkyig43qlLpSja",
                    "width": 4160
                }
            ],
            "place_id": "ChIJSZdxLjttpw0RCbSLfYXrUFE",
            "rating": null,
            "reference": "ChIJSZdxLjttpw0RCbSLfYXrUFE",
            "scope": "MEANZ TEST",
            "types": [
                "car_rental",
                "point_of_interest",
                "establishment"
            ],
            "user_ratings_total": null,
            "vicinity": "Amal 5 N1037 Magazin Rdc El massira Rabat, Rabat ",
            "opening_hours": {
                "open_now": false
            }
        },
        {
            "business_status": "OPERATIONAL",
            "geometry": {
                "location": {
                    "lat": 33.9983775,
                    "lng": -6.845645800000001
                },
                "viewport": {
                    "northeast": {
                        "lat": 33.99975713029149,
                        "lng": -6.844311519708498
                    },
                    "southwest": {
                        "lat": 33.99705916970849,
                        "lng": -6.847009480291502
                    }
                }
            },
            "icon": "https://maps.gstatic.com/mapfiles/place_api/icons/v1/png_71/generic_business-71.png",
            "name": "Design Car",
            "photos": [
                {
                    "height": 3264,
                    "photo_reference": "ATtYBwIMv3Dj8Pq0e3_x5a2ONWevzY1qJW2TxUx6zPo1EjWqlOkHTnBa_ho_DimG_Yp8XmDeSl2uInLNKk9UidzQ1-Lm2EjlaqnYS6HTwCjB5EgQqjG1LcaAwn59YvU8xXBWHMtCZl4LkBrXsM21tvmf-kRm3MwmRhExOdUQjqpvnZdhz7kP",
                    "width": 1836
                }
            ],
            "place_id": "ChIJ-bjVfIVspw0RPntFJzmz7NM",
            "rating": 5.0,
            "reference": "ChIJ-bjVfIVspw0RPntFJzmz7NM",
            "scope": "MEANZ TEST",
            "types": [
                "car_rental",
                "point_of_interest",
                "establishment"
            ],
            "user_ratings_total": 2,
            "vicinity": "Rabat ",
            "opening_hours": {
                "open_now": false
            }
        },
        {
            "business_status": "OPERATIONAL",
            "geometry": {
                "location": {
                    "lat": 34.0157937,
                    "lng": -6.834581300000001
                },
                "viewport": {
                    "northeast": {
                        "lat": 34.0171299302915,
                        "lng": -6.833268569708498
                    },
                    "southwest": {
                        "lat": 34.0144319697085,
                        "lng": -6.835966530291503
                    }
                }
            },
            "icon": "https://maps.gstatic.com/mapfiles/place_api/icons/v1/png_71/generic_business-71.png",
            "name": "Dollar [Rabat City]",
            "photos": null,
            "place_id": "ChIJqe8Dcl1rpw0R0BD5fdxx1oQ",
            "rating": null,
            "reference": "ChIJqe8Dcl1rpw0R0BD5fdxx1oQ",
            "scope": "MEANZ TEST",
            "types": [
                "car_rental",
                "point_of_interest",
                "establishment"
            ],
            "user_ratings_total": null,
            "vicinity": "467 Boulevard Mohamed V, Rabat ",
            "opening_hours": {
                "open_now": false
            }
        },
        {
            "business_status": "OPERATIONAL",
            "geometry": {
                "location": {
                    "lat": 33.9996044,
                    "lng": -6.8692755
                },
                "viewport": {
                    "northeast": {
                        "lat": 34.00095623029149,
                        "lng": -6.867923769708498
                    },
                    "southwest": {
                        "lat": 33.99825826970849,
                        "lng": -6.870621730291503
                    }
                }
            },
            "icon": "https://maps.gstatic.com/mapfiles/place_api/icons/v1/png_71/generic_business-71.png",
            "name": "Dream Team Car",
            "photos": [
                {
                    "height": 4608,
                    "photo_reference": "ATtYBwIodRKUf5BiKOPPRekCyhd8hMLPSPoqHBOd1kYj4H2168yhnm2_JAigpJTyE33g2uheAYEmM4Jt_kGTzuf4zc8HjF55oe32iU76H5xUlzpfVgZUNwR9b6Y1QW3ZyeW8ndOqlHkV9rlNLTszfTYP8GOCnx1g-xDw6tqHtFMDj-JveTWa",
                    "width": 3456
                }
            ],
            "place_id": "ChIJce5Jq9Vtpw0Rq65DwJdjZeg",
            "rating": null,
            "reference": "ChIJce5Jq9Vtpw0Rq65DwJdjZeg",
            "scope": "MEANZ TEST",
            "types": [
                "car_rental",
                "point_of_interest",
                "establishment"
            ],
            "user_ratings_total": null,
            "vicinity": "Rue 47 N 24, Hay El Barid C. Y. M, Rabat ",
            "opening_hours": {
                "open_now": false
            }
        },
        {
            "business_status": "OPERATIONAL",
            "geometry": {
                "location": {
                    "lat": 33.97558530000001,
                    "lng": -6.896762299999999
                },
                "viewport": {
                    "northeast": {
                        "lat": 33.9769184302915,
                        "lng": -6.895382869708498
                    },
                    "southwest": {
                        "lat": 33.9742204697085,
                        "lng": -6.898080830291502
                    }
                }
            },
            "icon": "https://maps.gstatic.com/mapfiles/place_api/icons/v1/png_71/generic_business-71.png",
            "name": "EMT CAR",
            "photos": [
                {
                    "height": 960,
                    "photo_reference": "ATtYBwJTWpEVu7dpv5O50E7KGgtO_nbZcnI5V6W1ihL3NNB1hESW6lIJ_g3J12uxUFJ2Dy0Au1marz58OdsB9szMqVmf4OaMqeqLzPOi6K1CzqlJnZfpJ_5nAK5R5q5NaXTbKKbi2IzlDRZJHFd3beGMKhtQ3vumOf5ROmH9m1KNID218riF",
                    "width": 720
                }
            ],
            "place_id": "ChIJM_VBJzltpw0RSOn-o5uz02E",
            "rating": null,
            "reference": "ChIJM_VBJzltpw0RSOn-o5uz02E",
            "scope": "MEANZ TEST",
            "types": [
                "car_rental",
                "point_of_interest",
                "establishment"
            ],
            "user_ratings_total": null,
            "vicinity": "231, hey el menzeh cym rabat, Rabat ",
            "opening_hours": {
                "open_now": false
            }
        },
        {
            "business_status": "OPERATIONAL",
            "geometry": {
                "location": {
                    "lat": 33.97496569999999,
                    "lng": -6.828744100000001
                },
                "viewport": {
                    "northeast": {
                        "lat": 33.9763450802915,
                        "lng": -6.827284119708498
                    },
                    "southwest": {
                        "lat": 33.9736471197085,
                        "lng": -6.829982080291503
                    }
                }
            },
            "icon": "https://maps.gstatic.com/mapfiles/place_api/icons/v1/png_71/generic_business-71.png",
            "name": "EUROGULF Car Rental & Touristic Transport",
            "photos": [
                {
                    "height": 433,
                    "photo_reference": "ATtYBwKPkCW_0xrYQfvB7kdAiGD0xYkipgKeS3BQFGz21xn1cGtnFbhtXJEcxKAF7ULb-BC0X_dmNEXMsT-QZbwcUvtMrw6ujzglvndNkTPfdVfwaC-n7jiVcwbkO-kHt6uG7IgwAmrzQS9WzPMhUAAAUhLAGXrnVTkCywzcbQ1YBKhr86z8",
                    "width": 692
                }
            ],
            "place_id": "ChIJY8taTettpw0RaAz8nCCV8ZQ",
            "rating": 5.0,
            "reference": "ChIJY8taTettpw0RaAz8nCCV8ZQ",
            "scope": "MEANZ TEST",
            "types": [
                "car_rental",
                "point_of_interest",
                "establishment"
            ],
            "user_ratings_total": 2,
            "vicinity": "CARREFOUR GOURMET, Av Mohamed 6- N° 33 Centre commercial Galaxie En face, Rabat ",
            "opening_hours": {
                "open_now": false
            }
        },
        {
            "business_status": "OPERATIONAL",
            "geometry": {
                "location": {
                    "lat": 33.9811154,
                    "lng": -6.818743599999999
                },
                "viewport": {
                    "northeast": {
                        "lat": 33.9824934302915,
                        "lng": -6.817421169708498
                    },
                    "southwest": {
                        "lat": 33.97979546970851,
                        "lng": -6.820119130291503
                    }
                }
            },
            "icon": "https://maps.gstatic.com/mapfiles/place_api/icons/v1/png_71/generic_business-71.png",
            "name": "EcoFLEET",
            "photos": null,
            "place_id": "ChIJKR-45Yxrpw0RJlewvqnbOLQ",
            "rating": null,
            "reference": "ChIJKR-45Yxrpw0RJlewvqnbOLQ",
            "scope": "MEANZ TEST",
            "types": [
                "car_rental",
                "point_of_interest",
                "establishment"
            ],
            "user_ratings_total": null,
            "vicinity": "N° 749, hay nahda 1 idafi, groupe el, AHD, Rabat ",
            "opening_hours": null
        },
        {
            "business_status": "OPERATIONAL",
            "geometry": {
                "location": {
                    "lat": 33.9880787,
                    "lng": -6.8517073
                },
                "viewport": {
                    "northeast": {
                        "lat": 33.9894259302915,
                        "lng": -6.850264619708498
                    },
                    "southwest": {
                        "lat": 33.9867279697085,
                        "lng": -6.852962580291503
                    }
                }
            },
            "icon": "https://maps.gstatic.com/mapfiles/place_api/icons/v1/png_71/generic_business-71.png",
            "name": "Economic Car Rental",
            "photos": null,
            "place_id": "ChIJaVCOv2Btpw0RktUXQKvsNck",
            "rating": null,
            "reference": "ChIJaVCOv2Btpw0RktUXQKvsNck",
            "scope": "MEANZ TEST",
            "types": [
                "car_rental",
                "point_of_interest",
                "establishment"
            ],
            "user_ratings_total": null,
            "vicinity": "2ème étage N°8, 79 Avenue Ibn Sina, Rabat ",
            "opening_hours": null
        },
        {
            "business_status": "OPERATIONAL",
            "geometry": {
                "location": {
                    "lat": 34.01190459999999,
                    "lng": -6.852551000000001
                },
                "viewport": {
                    "northeast": {
                        "lat": 34.01328393029149,
                        "lng": -6.851179969708499
                    },
                    "southwest": {
                        "lat": 34.01058596970849,
                        "lng": -6.853877930291504
                    }
                }
            },
            "icon": "https://maps.gstatic.com/mapfiles/place_api/icons/v1/png_71/generic_business-71.png",
            "name": "El Mawada Car",
            "photos": [
                {
                    "height": 630,
                    "photo_reference": "ATtYBwLe05hscR2iwBE8qD3ZaPSP6SlmQw-cZTyzMOCaelVJQ2-AYYBzyBSQWLbDIqdoMnPss56SFmTIY8M9xq2E-LlKnMviIsmiSJxXqXEyCTtqANN3wfRYmS77Iy1JCjoLCudhKd1-5RTRjzVIDaYYmb0gSrbiy0a3NfWyH2cnQT4B0vJi",
                    "width": 1702
                }
            ],
            "place_id": "ChIJAz3oJxRtpw0RdwU-1DRyL3o",
            "rating": 5.0,
            "reference": "ChIJAz3oJxRtpw0RdwU-1DRyL3o",
            "scope": "MEANZ TEST",
            "types": [
                "car_rental",
                "point_of_interest",
                "establishment"
            ],
            "user_ratings_total": 1,
            "vicinity": "N°12, Rue Abdelaziz boutaleb Rés.Bab tamesna RDC, Rabat ",
            "opening_hours": null
        },
        {
            "business_status": "OPERATIONAL",
            "geometry": {
                "location": {
                    "lat": 33.9376432,
                    "lng": -6.886541599999999
                },
                "viewport": {
                    "northeast": {
                        "lat": 33.9390140302915,
                        "lng": -6.885249519708498
                    },
                    "southwest": {
                        "lat": 33.9363160697085,
                        "lng": -6.887947480291501
                    }
                }
            },
            "icon": "https://maps.gstatic.com/mapfiles/place_api/icons/v1/png_71/generic_business-71.png",
            "name": "El jafini cars",
            "photos": [
                {
                    "height": 540,
                    "photo_reference": "ATtYBwI068nerEAn8Z_AighIYwFNbzkfHDSvvKbbwtvoI0OlDkwCkDNK11pbqRqJhodAb-1hc4ufSTKyNuP5oP1mCaEX1e6M-wsaoUArzGDS_A3mCkhS96hw4YwHMdtT4B5BJaQB6BjgTAMc8vMP0IFSadNQuSCTPxbpszRXBdEzzh7n5l5c",
                    "width": 540
                }
            ],
            "place_id": "ChIJ94yCrYATpw0Rf62mbx0YEqc",
            "rating": 5.0,
            "reference": "ChIJ94yCrYATpw0Rf62mbx0YEqc",
            "scope": "MEANZ TEST",
            "types": [
                "car_rental",
                "point_of_interest",
                "establishment"
            ],
            "user_ratings_total": 2,
            "vicinity": "42 hay giche loudaya, Témara ",
            "opening_hours": {
                "open_now": true
            }
        },
        {
            "business_status": "OPERATIONAL",
            "geometry": {
                "location": {
                    "lat": 34.0048229,
                    "lng": -6.8490824
                },
                "viewport": {
                    "northeast": {
                        "lat": 34.0061483802915,
                        "lng": -6.847697519708499
                    },
                    "southwest": {
                        "lat": 34.0034504197085,
                        "lng": -6.850395480291503
                    }
                }
            },
            "icon": "https://maps.gstatic.com/mapfiles/place_api/icons/v1/png_71/generic_business-71.png",
            "name": "Elite Auto",
            "photos": null,
            "place_id": "ChIJvUk_r4lspw0R0LlUf0oEae0",
            "rating": 3.0,
            "reference": "ChIJvUk_r4lspw0R0LlUf0oEae0",
            "scope": "MEANZ TEST",
            "types": [
                "car_rental",
                "point_of_interest",
                "establishment"
            ],
            "user_ratings_total": 2,
            "vicinity": "Rabat ",
            "opening_hours": null
        },
        {
            "business_status": "OPERATIONAL",
            "geometry": {
                "location": {
                    "lat": 34.0208606,
                    "lng": -6.8316383
                },
                "viewport": {
                    "northeast": {
                        "lat": 34.02220953029149,
                        "lng": -6.830287319708498
                    },
                    "southwest": {
                        "lat": 34.01951156970849,
                        "lng": -6.832985280291502
                    }
                }
            },
            "icon": "https://maps.gstatic.com/mapfiles/place_api/icons/v1/png_71/generic_business-71.png",
            "name": "Europcar",
            "photos": null,
            "place_id": "ChIJwcVQH4drpw0RXn3fMdLXEFU",
            "rating": 3.3,
            "reference": "ChIJwcVQH4drpw0RXn3fMdLXEFU",
            "scope": "MEANZ TEST",
            "types": [
                "car_rental",
                "point_of_interest",
                "establishment"
            ],
            "user_ratings_total": 6,
            "vicinity": "25 bis, rue Patrice Lumumba, Rabat ",
            "opening_hours": {
                "open_now": false
            }
        },
        {
            "business_status": "OPERATIONAL",
            "geometry": {
                "location": {
                    "lat": 33.9965596,
                    "lng": -6.8454306
                },
                "viewport": {
                    "northeast": {
                        "lat": 33.99785618029149,
                        "lng": -6.844055819708498
                    },
                    "southwest": {
                        "lat": 33.99515821970849,
                        "lng": -6.846753780291503
                    }
                }
            },
            "icon": "https://maps.gstatic.com/mapfiles/place_api/icons/v1/png_71/generic_business-71.png",
            "name": "Event More Cars",
            "photos": null,
            "place_id": "ChIJ5-fsU4Vspw0RdWGZXs-BSqM",
            "rating": null,
            "reference": "ChIJ5-fsU4Vspw0RdWGZXs-BSqM",
            "scope": "MEANZ TEST",
            "types": [
                "car_rental",
                "point_of_interest",
                "establishment"
            ],
            "user_ratings_total": null,
            "vicinity": "Rue Jabal Oukaïmeden, Rabat ",
            "opening_hours": null
        },
        {
            "business_status": "OPERATIONAL",
            "geometry": {
                "location": {
                    "lat": 34.0144992,
                    "lng": -6.8353837
                },
                "viewport": {
                    "northeast": {
                        "lat": 34.01587208029149,
                        "lng": -6.834059469708499
                    },
                    "southwest": {
                        "lat": 34.01317411970849,
                        "lng": -6.836757430291503
                    }
                }
            },
            "icon": "https://maps.gstatic.com/mapfiles/place_api/icons/v1/png_71/generic_business-71.png",
            "name": "FABELCAR",
            "photos": [
                {
                    "height": 1500,
                    "photo_reference": "ATtYBwID72lcX7cUZy1HDuqcaUuSh1KVa9-ccsXWt4o_jJzc2-bqju062QUkTxgTM7NFq7ACk_RqStsBiUd4geLwDShEnUTmtsTS0pv-1lXshLIFzl2-WYKEJXVd5pogpby-L2R-lza5XcPBNFYb2QYjpSgFpYeA0VN8dIYcvWBbS-EtFTtN",
                    "width": 3417
                }
            ],
            "place_id": "ChIJS74wCphtpw0RFecK8_T8Lao",
            "rating": 4.0,
            "reference": "ChIJS74wCphtpw0RFecK8_T8Lao",
            "scope": "MEANZ TEST",
            "types": [
                "car_rental",
                "point_of_interest",
                "establishment"
            ],
            "user_ratings_total": 4,
            "vicinity": "Rue al khalil, Rabat ",
            "opening_hours": {
                "open_now": true
            }
        },
        {
            "business_status": "OPERATIONAL",
            "geometry": {
                "location": {
                    "lat": 34.012204,
                    "lng": -6.828637000000001
                },
                "viewport": {
                    "northeast": {
                        "lat": 34.0135525802915,
                        "lng": -6.827268219708498
                    },
                    "southwest": {
                        "lat": 34.0108546197085,
                        "lng": -6.829966180291502
                    }
                }
            },
            "icon": "https://maps.gstatic.com/mapfiles/place_api/icons/v1/png_71/generic_business-71.png",
            "name": "FAHIM'S CAR",
            "photos": [
                {
                    "height": 1152,
                    "photo_reference": "ATtYBwLr1kRG9i85G6XA73YMW4vfdaVXtjP8Jl6QzKkrD2q9z81YmBSIanCTKD8Q2wk6XqBFUoCuerMlbaa3JRPSKPJLMxtNEsAjMT293Xjpo9DEgw1lMORPB9xcyCi5vxCBtNEihqdRXgwq3s4Cn7nASIbDiERwYLF_mhp3S75dxjLbymOS",
                    "width": 2048
                }
            ],
            "place_id": "ChIJP-w-wYNrpw0RWKVKsI5PnJY",
            "rating": 5.0,
            "reference": "ChIJP-w-wYNrpw0RWKVKsI5PnJY",
            "scope": "MEANZ TEST",
            "types": [
                "car_rental",
                "point_of_interest",
                "establishment"
            ],
            "user_ratings_total": 1,
            "vicinity": "25 Avenue Patrice Lumumba, Rabat ",
            "opening_hours": {
                "open_now": false
            }
        },
        {
            "business_status": "OPERATIONAL",
            "geometry": {
                "location": {
                    "lat": 33.967495,
                    "lng": -6.863056
                },
                "viewport": {
                    "northeast": {
                        "lat": 33.96878008029149,
                        "lng": -6.861617769708498
                    },
                    "southwest": {
                        "lat": 33.9660821197085,
                        "lng": -6.864315730291502
                    }
                }
            },
            "icon": "https://maps.gstatic.com/mapfiles/place_api/icons/v1/png_71/generic_business-71.png",
            "name": "Fantasia Car | Location Voitures Rabat",
            "photos": [
                {
                    "height": 1512,
                    "photo_reference": "ATtYBwJdYmybKRwmty554_BwsyqjLAD2wstBESmAR90yUUHUM51EmFCU1Q7yl_8fvX-E91JhGaV1-FR4-kwpNhqi3kbnVl7PlDpPSluLL-tZTWLhN9AWSF1PZJ3G7U2ko-WL5bT4R5LZy92bFHEZgf0LNCYz4orRZMnCHXRuBfqUgPhmKQHE",
                    "width": 2016
                }
            ],
            "place_id": "ChIJP53FtTdtpw0RQp3pdk6id3w",
            "rating": 4.8,
            "reference": "ChIJP53FtTdtpw0RQp3pdk6id3w",
            "scope": "MEANZ TEST",
            "types": [
                "car_rental",
                "point_of_interest",
                "establishment"
            ],
            "user_ratings_total": 53,
            "vicinity": "Imm B2, apprt5, Bloc2, Amal6, hay el fath, cym, Rabat ",
            "opening_hours": {
                "open_now": true
            }
        },
        {
            "business_status": "OPERATIONAL",
            "geometry": {
                "location": {
                    "lat": 33.971595,
                    "lng": -6.8498188
                },
                "viewport": {
                    "northeast": {
                        "lat": 33.9730435302915,
                        "lng": -6.848592819708497
                    },
                    "southwest": {
                        "lat": 33.9703455697085,
                        "lng": -6.851290780291501
                    }
                }
            },
            "icon": "https://maps.gstatic.com/mapfiles/place_api/icons/v1/png_71/generic_business-71.png",
            "name": "GROUP TOURS",
            "photos": null,
            "place_id": "ChIJdW9557Bspw0RyklD0LpkOKU",
            "rating": null,
            "reference": "ChIJdW9557Bspw0RyklD0LpkOKU",
            "scope": "MEANZ TEST",
            "types": [
                "car_rental",
                "point_of_interest",
                "establishment"
            ],
            "user_ratings_total": null,
            "vicinity": "Gr el marjane no 113 takaddoum rabat, Rabat ",
            "opening_hours": {
                "open_now": true
            }
        },
        {
            "business_status": "OPERATIONAL",
            "geometry": {
                "location": {
                    "lat": 33.9775364,
                    "lng": -6.815436399999999
                },
                "viewport": {
                    "northeast": {
                        "lat": 33.9788874802915,
                        "lng": -6.814084069708498
                    },
                    "southwest": {
                        "lat": 33.97618951970851,
                        "lng": -6.816782030291502
                    }
                }
            },
            "icon": "https://maps.gstatic.com/mapfiles/place_api/icons/v1/png_71/generic_business-71.png",
            "name": "Ghaf CAR",
            "photos": [
                {
                    "height": 820,
                    "photo_reference": "ATtYBwIXCTF_1SoTzSjOx8rHqZSw9-UkXE8kJ41QjZ70GP2q60wXNdpK0lrCDb45OKtXOneqPjxDq6R1u6C0jyvgLYBs0NvPcNysvoNLdZOd7dxJiuSQB0H1UN94UUrSaGf8Wg_j-Cf_mgZDlFn-VGEoZr3otx2nxTwXnfOdombuu7dL3ipj",
                    "width": 1280
                }
            ],
            "place_id": "ChIJbwCG-eRrpw0RcMsquQZjc1g",
            "rating": 5.0,
            "reference": "ChIJbwCG-eRrpw0RcMsquQZjc1g",
            "scope": "MEANZ TEST",
            "types": [
                "car_rental",
                "point_of_interest",
                "establishment"
            ],
            "user_ratings_total": 5,
            "vicinity": "Rabat ",
            "opening_hours": {
                "open_now": true
            }
        },
        {
            "business_status": "OPERATIONAL",
            "geometry": {
                "location": {
                    "lat": 33.98132339999999,
                    "lng": -6.8240725
                },
                "viewport": {
                    "northeast": {
                        "lat": 33.9825556302915,
                        "lng": -6.822606919708498
                    },
                    "southwest": {
                        "lat": 33.9798576697085,
                        "lng": -6.825304880291503
                    }
                }
            },
            "icon": "https://maps.gstatic.com/mapfiles/place_api/icons/v1/png_71/generic_business-71.png",
            "name": "Guiz Rental - Location de voitures",
            "photos": null,
            "place_id": "ChIJ-WDHpKdrpw0RBvCr9jmH3Mo",
            "rating": 5.0,
            "reference": "ChIJ-WDHpKdrpw0RBvCr9jmH3Mo",
            "scope": "MEANZ TEST",
            "types": [
                "car_rental",
                "point_of_interest",
                "establishment"
            ],
            "user_ratings_total": 2,
            "vicinity": "23 Avenue Hoummane Al Fatouaki, Rabat ",
            "opening_hours": {
                "open_now": false
            }
        },
        {
            "business_status": "OPERATIONAL",
            "geometry": {
                "location": {
                    "lat": 33.981366,
                    "lng": -6.818813
                },
                "viewport": {
                    "northeast": {
                        "lat": 33.9826516302915,
                        "lng": -6.817404619708498
                    },
                    "southwest": {
                        "lat": 33.9799536697085,
                        "lng": -6.820102580291502
                    }
                }
            },
            "icon": "https://maps.gstatic.com/mapfiles/place_api/icons/v1/png_71/generic_business-71.png",
            "name": "H.O.H CAR",
            "photos": null,
            "place_id": "ChIJ_fVFVEFrpw0RGtINJUr9Z7M",
            "rating": 5.0,
            "reference": "ChIJ_fVFVEFrpw0RGtINJUr9Z7M",
            "scope": "MEANZ TEST",
            "types": [
                "car_rental",
                "point_of_interest",
                "establishment"
            ],
            "user_ratings_total": 1,
            "vicinity": "Avenue Targa immeuble 4 Magasin 5 Nahda I, Rabat ",
            "opening_hours": {
                "open_now": false
            }
        },
        {
            "business_status": "OPERATIONAL",
            "geometry": {
                "location": {
                    "lat": 33.983696,
                    "lng": -6.870869799999999
                },
                "viewport": {
                    "northeast": {
                        "lat": 33.98507660759012,
                        "lng": -6.869504865990511
                    },
                    "southwest": {
                        "lat": 33.98237864700712,
                        "lng": -6.872202826573516
                    }
                }
            },
            "icon": "https://maps.gstatic.com/mapfiles/place_api/icons/v1/png_71/generic_business-71.png",
            "name": "HONDA",
            "photos": [
                {
                    "height": 2322,
                    "photo_reference": "ATtYBwIplDsY0FyZ1dx8wvBU0G6UuqNM7Vp1gFd06O43W_UKZsevn-vwX62mq7LJgGFnlYMmsRhW6UMj9hEAJTG3V2DLYXJ-5d7PSDS7PxNKjuBG0x2PgJXcRL51TnDcjIIkhazrcaJrdal1pWPOlQx6E0pt5lwrCGG8q4CBQXL3MhWTGSwI",
                    "width": 4128
                }
            ],
            "place_id": "ChIJl5jDid1spw0Rim72Y46kyec",
            "rating": null,
            "reference": "ChIJl5jDid1spw0Rim72Y46kyec",
            "scope": "MEANZ TEST",
            "types": [
                "car_rental",
                "null",
                "establishment"
            ],
            "user_ratings_total": null,
            "vicinity": "Rabat ",
            "opening_hours": null
        },
        {
            "business_status": "OPERATIONAL",
            "geometry": {
                "location": {
                    "lat": 34.00505429999999,
                    "lng": -6.852064700000001
                },
                "viewport": {
                    "northeast": {
                        "lat": 34.00640328029149,
                        "lng": -6.850715719708499
                    },
                    "southwest": {
                        "lat": 34.00370531970849,
                        "lng": -6.853413680291504
                    }
                }
            },
            "icon": "https://maps.gstatic.com/mapfiles/place_api/icons/v1/png_71/generic_business-71.png",
            "name": "Hard car",
            "photos": [
                {
                    "height": 400,
                    "photo_reference": "ATtYBwLRzIpvPnsHbrM0CfvxSygsCGEqdnaQypku-iHlx8uNxypzCgnz1GlnUfIrCXpwMdYwK5dvvRyIs1vljyLxv1yGqrEqBU4Hk-9ahw7DzTTKV74f5EtGzk-yrGaeAtX6WoJ5h0Rl_FUiktEMfxEdjRKzAIj2VpCDXIwsGnm8tAgRlzEo",
                    "width": 600
                }
            ],
            "place_id": "ChIJ3Xff1oNtpw0RHySp-cpqw5g",
            "rating": 5.0,
            "reference": "ChIJ3Xff1oNtpw0RHySp-cpqw5g",
            "scope": "MEANZ TEST",
            "types": [
                "car_rental",
                "point_of_interest",
                "establishment"
            ],
            "user_ratings_total": 1,
            "vicinity": "Rue dait roumi imm B appt 11, Rabat ",
            "opening_hours": {
                "open_now": false
            }
        },
        {
            "business_status": "OPERATIONAL",
            "geometry": {
                "location": {
                    "lat": 33.9979505,
                    "lng": -6.858240899999998
                },
                "viewport": {
                    "northeast": {
                        "lat": 33.99936913029149,
                        "lng": -6.857105819708497
                    },
                    "southwest": {
                        "lat": 33.9966711697085,
                        "lng": -6.859803780291501
                    }
                }
            },
            "icon": "https://maps.gstatic.com/mapfiles/place_api/icons/v1/png_71/generic_business-71.png",
            "name": "Hertz [Rabat Agdal Railway]",
            "photos": null,
            "place_id": "ChIJyylm0fBtpw0RrV82361Lc04",
            "rating": null,
            "reference": "ChIJyylm0fBtpw0RrV82361Lc04",
            "scope": "MEANZ TEST",
            "types": [
                "car_rental",
                "point_of_interest",
                "establishment"
            ],
            "user_ratings_total": null,
            "vicinity": "Avenue El Hadj Ahmed Charkaoui, Rabat ",
            "opening_hours": {
                "open_now": false
            }
        },
        {
            "business_status": "OPERATIONAL",
            "geometry": {
                "location": {
                    "lat": 34.0158076,
                    "lng": -6.834598499999999
                },
                "viewport": {
                    "northeast": {
                        "lat": 34.01714638029149,
                        "lng": -6.833278419708498
                    },
                    "southwest": {
                        "lat": 34.0144484197085,
                        "lng": -6.835976380291503
                    }
                }
            },
            "icon": "https://maps.gstatic.com/mapfiles/place_api/icons/v1/png_71/generic_business-71.png",
            "name": "Hertz [Rabat City]",
            "photos": [
                {
                    "height": 3864,
                    "photo_reference": "ATtYBwLKWCo_R7b5Wm0EtUxQAzpJbv4gTfSnNaiw4wpZSHfKDb5e_0PA-nk3iVfWknEhQxTeEpwKXtBDd7CeaYiPUZwg0ChU3f94jIA2wsTm5NEcyRxzHDhpr26zAixdiue4iIFMhXvukSg42GeZM3XtYDOcFjBY7vgxfJ6sx5eGx1DUoMLd",
                    "width": 5152
                }
            ],
            "place_id": "ChIJ0RT6O4Frpw0RUWNU6-tq7v8",
            "rating": 2.3,
            "reference": "ChIJ0RT6O4Frpw0RUWNU6-tq7v8",
            "scope": "MEANZ TEST",
            "types": [
                "car_rental",
                "point_of_interest",
                "establishment"
            ],
            "user_ratings_total": 22,
            "vicinity": "467 Avenue Mohammed V, Rabat ",
            "opening_hours": {
                "open_now": false
            }
        },