{
    "results": [
        {
            "business_status": "OPERATIONAL",
            "geometry": {
                "location": {
                    "lat": 34.0420616,
                    "lng": -4.998322700000001
                },
                "viewport": {
                    "northeast": {
                        "lat": 34.04349537989272,
                        "lng": -4.997133120107278
                    },
                    "southwest": {
                        "lat": 34.04079572010728,
                        "lng": -4.999832779892722
                    }
                }
            },
            "icon": "https://maps.gstatic.com/mapfiles/place_api/icons/v1/png_71/generic_business-71.png",
            "name": "Abid Cars Fes Location de voiture",
            "photos": [
                {
                    "height": 288,
                    "photo_reference": "ATtYBwJpcG1dGJKEu3c1GE35cqelQSz4GANwdfU-Jc6KRg8Y86OudAXRAL1g0VoTGYjPgcHZOg9wPjPomC3JigYDjAqDgpBXyoljirqcNpO75ODJ_19s8thrBatMfsT-V9LpzDAisOTc9c0VcPpbbErGsdOKBM8pg7PdHcUEBSFp3WAs6z8L",
                    "width": 1200
                }
            ],
            "place_id": "ChIJnUXgwzeLnw0RJgF2j1ydou8",
            "rating": 4.7,
            "reference": "ChIJnUXgwzeLnw0RJgF2j1ydou8",
            "scope": "MEANZ TEST",
            "types": [
                "car_rental",
                "point_of_interest",
                "establishment"
            ],
            "user_ratings_total": 80,
            "vicinity": "41 Avenue Hassan II, Fès 30000, Morocco ",
            "opening_hours": {
                "open_now": true
            }
        },
        {
            "business_status": "OPERATIONAL",
            "geometry": {
                "location": {
                    "lat": 34.036827,
                    "lng": -4.9976181
                },
                "viewport": {
                    "northeast": {
                        "lat": 34.03817312989273,
                        "lng": -4.996319970107277
                    },
                    "southwest": {
                        "lat": 34.03547347010728,
                        "lng": -4.999019629892721
                    }
                }
            },
            "icon": "https://maps.gstatic.com/mapfiles/place_api/icons/v1/png_71/generic_business-71.png",
            "name": "Rami Rent Car",
            "photos": [
                {
                    "height": 306,
                    "photo_reference": "ATtYBwIEG_IDhDY-HwrKA5G-HVoyCU3FkYByLkcSGE5xYXK6taNNIwA4v9lLQ0WvDQAitX7Bxl5rz_33h7S_rBTLafaPTXcXFRle1xX-cV1hWcCOMhtWVg0wbhjVzNK3k_Qmx5BLwwR56CzRQaM5kUltKIZmf3PZqzL01uzziJoIRP4X94mV",
                    "width": 460
                }
            ],
            "place_id": "ChIJoXvJpUCLnw0Rg2dc3muOLfg",
            "rating": 4.2,
            "reference": "ChIJoXvJpUCLnw0Rg2dc3muOLfg",
            "scope": "MEANZ TEST",
            "types": [
                "car_rental",
                "point_of_interest",
                "establishment"
            ],
            "user_ratings_total": 27,
            "vicinity": "Fes 30050, Morocco ",
            "opening_hours": {
                "open_now": true
            }
        },
        {
            "business_status": "OPERATIONAL",
            "geometry": {
                "location": {
                    "lat": 34.034115,
                    "lng": -5.013348
                },
                "viewport": {
                    "northeast": {
                        "lat": 34.03529827989272,
                        "lng": -5.012219820107277
                    },
                    "southwest": {
                        "lat": 34.03259862010728,
                        "lng": -5.014919479892721
                    }
                }
            },
            "icon": "https://maps.gstatic.com/mapfiles/place_api/icons/v1/png_71/generic_business-71.png",
            "name": "Thrifty Car Rental",
            "photos": [
                {
                    "height": 720,
                    "photo_reference": "ATtYBwKJfHmGvPJEyLEZehmuHeOyU0MbpQ_fW1UA8zTlqNLvlin6iMsCKzSA8GuScTgEzrdXovHtKd_-FAYzhiLW9BVpny9o1cuu_Z-5Pg8F4AgvqcKFG6CbT4R9GWy4VbKsbqdp_uQBbWMXG-ckbF23o9WOQ51vJtEMWkxv8Js7T58ULujv",
                    "width": 720
                }
            ],
            "place_id": "ChIJwwlXCxqLnw0RI9wyMfpVZe4",
            "rating": 0.0,
            "reference": "ChIJwwlXCxqLnw0RI9wyMfpVZe4",
            "scope": "MEANZ TEST",
            "types": [
                "car_rental",
                "point_of_interest",
                "establishment"
            ],
            "user_ratings_total": 0,
            "vicinity": "NO 1 KISSARIAT DE LA FOIRE, Fes, Morocco ",
            "opening_hours": {
                "open_now": true
            }
        },
        {
            "business_status": "OPERATIONAL",
            "geometry": {
                "location": {
                    "lat": 34.0406383,
                    "lng": -4.9967231
                },
                "viewport": {
                    "northeast": {
                        "lat": 34.04199247989273,
                        "lng": -4.995312770107278
                    },
                    "southwest": {
                        "lat": 34.03929282010728,
                        "lng": -4.998012429892722
                    }
                }
            },
            "icon": "https://maps.gstatic.com/mapfiles/place_api/icons/v1/png_71/generic_business-71.png",
            "name": "AVIS - Location de Voiture Fès Centre Ville",
            "photos": [
                {
                    "height": 628,
                    "photo_reference": "ATtYBwKN5qvNRkJ4mE33mIEZsAALmduXYfedkGxxY6RnaOy4RgmBIgyrcI40EEocmxYyVgxavcJaYOJ_-__JlAe_6xAZUHren84BWuUbXIlezDWpzPAV7Vfzg88T8O2ani2NpepOvfIGshWraUSQfFQivfnM5RB3nTQqUjhuKeYB2bdNrDuU",
                    "width": 628
                }
            ],
            "place_id": "ChIJ_cQN4keLnw0R13JnIHCQV-4",
            "rating": 4.6,
            "reference": "ChIJ_cQN4keLnw0R13JnIHCQV-4",
            "scope": "MEANZ TEST",
            "types": [
                "car_rental",
                "point_of_interest",
                "establishment"
            ],
            "user_ratings_total": 208,
            "vicinity": "50 Boulevard Chefchaouni, Fès 30050, Morocco ",
            "opening_hours": {
                "open_now": true
            }
        },
        {
            "business_status": "OPERATIONAL",
            "geometry": {
                "location": {
                    "lat": 33.931775,
                    "lng": -4.9835761
                },
                "viewport": {
                    "northeast": {
                        "lat": 33.93290647989272,
                        "lng": -4.982232070107278
                    },
                    "southwest": {
                        "lat": 33.93020682010728,
                        "lng": -4.984931729892723
                    }
                }
            },
            "icon": "https://maps.gstatic.com/mapfiles/place_api/icons/v1/png_71/generic_business-71.png",
            "name": "Surprice Car Rentals Fes",
            "photos": null,
            "place_id": "ChIJoTgJbdiJnw0RlwofIh1tZOg",
            "rating": 5.0,
            "reference": "ChIJoTgJbdiJnw0RlwofIh1tZOg",
            "scope": "MEANZ TEST",
            "types": [
                "car_rental",
                "point_of_interest",
                "establishment"
            ],
            "user_ratings_total": 2,
            "vicinity": "2 etage, Oulad tayeb oulia route principal Immouzzer, Fes 30023, Morocco ",
            "opening_hours": {
                "open_now": true
            }
        },
        {
            "business_status": "OPERATIONAL",
            "geometry": {
                "location": {
                    "lat": 34.0238295,
                    "lng": -5.0094254
                },
                "viewport": {
                    "northeast": {
                        "lat": 34.02524532989272,
                        "lng": -5.008064070107278
                    },
                    "southwest": {
                        "lat": 34.02254567010728,
                        "lng": -5.010763729892722
                    }
                }
            },
            "icon": "https://maps.gstatic.com/mapfiles/place_api/icons/v1/png_71/generic_business-71.png",
            "name": "Jouadri Car - Location Voiture Fes",
            "photos": [
                {
                    "height": 686,
                    "photo_reference": "ATtYBwJhDEAjq18Y2IUdOmQkZgaxXWn50MDd5SHAN9OQtrVaOjdhUKgPRYmtLk87lR4hevYBCG6sLa42A1CSk5dQ-oUq5X1OhzOCAqR_oTCx0Nf9TRRVWJa7iJeVXa87mYz2oZsH6uAO3z7XOzZBd8a1-P0F2lsuwzhyk6BCh-qxBIsMr2HL",
                    "width": 1047
                }
            ],
            "place_id": "ChIJJxMbiRmLnw0RrGYGKQdWPK4",
            "rating": 4.5,
            "reference": "ChIJJxMbiRmLnw0RrGYGKQdWPK4",
            "scope": "MEANZ TEST",
            "types": [
                "car_rental",
                "point_of_interest",
                "establishment"
            ],
            "user_ratings_total": 14,
            "vicinity": "16 lot Ennour hay al farah *saada* magasin 2 30000 Fès، 30000, Morocco ",
            "opening_hours": {
                "open_now": true
            }
        },
        {
            "business_status": "OPERATIONAL",
            "geometry": {
                "location": {
                    "lat": 33.9317487,
                    "lng": -4.985029
                },
                "viewport": {
                    "northeast": {
                        "lat": 33.93289747989272,
                        "lng": -4.983681370107278
                    },
                    "southwest": {
                        "lat": 33.93019782010728,
                        "lng": -4.986381029892722
                    }
                }
            },
            "icon": "https://maps.gstatic.com/mapfiles/place_api/icons/v1/png_71/generic_business-71.png",
            "name": "Cerisa Car rent a car",
            "photos": [
                {
                    "height": 360,
                    "photo_reference": "ATtYBwIPvyDmIlOLwb2fu21TSMBF6vcHrzhB4iW5L_YmRrCQjle6qLtWSfRLDhewFjaUtg-MUIMoJbucBl0fBtvXqxnTDc2v4EAOOH16pXRP0VYTDhlWX_V4hwmPszrPq_jkJNMKmD7HmkZmVTNSoI6ijEev7FU9S2n6V5pSWxV-QYzauEMc",
                    "width": 480
                }
            ],
            "place_id": "ChIJv2nR-DGJnw0RmqjVp0vNujY",
            "rating": 4.3,
            "reference": "ChIJv2nR-DGJnw0RmqjVp0vNujY",
            "scope": "MEANZ TEST",
            "types": [
                "car_rental",
                "point_of_interest",
                "establishment"
            ],
            "user_ratings_total": 140,
            "vicinity": "aéroport fes sais, Fès 30000, Morocco ",
            "opening_hours": {
                "open_now": true
            }
        },
        {
            "business_status": "OPERATIONAL",
            "geometry": {
                "location": {
                    "lat": 34.04251,
                    "lng": -5.001774
                },
                "viewport": {
                    "northeast": {
                        "lat": 34.04387707989272,
                        "lng": -5.000410370107279
                    },
                    "southwest": {
                        "lat": 34.04117742010728,
                        "lng": -5.003110029892722
                    }
                }
            },
            "icon": "https://maps.gstatic.com/mapfiles/place_api/icons/v1/png_71/generic_business-71.png",
            "name": "Hertz Car Rental",
            "photos": [
                {
                    "height": 720,
                    "photo_reference": "ATtYBwKWx8qT2rxp89z5pQZ4dNxPqartftjyeK45Id8i3a3fV_sOGAqJ1N9__h0nvCsc2NLcb7-jZvzLdAMM9jZDBnNP0ftghUYIHMLtXJuuBBwlpsyoK3r_K3qvwPa8Ulpx9LxLrgqlH5kFowTd8D16xcTreFk7BZ6fakuzWT0-i-gbbdfu",
                    "width": 720
                }
            ],
            "place_id": "ChIJY_AJOzeLnw0RMfO5TYcrnuA",
            "rating": 2.5,
            "reference": "ChIJY_AJOzeLnw0RMfO5TYcrnuA",
            "scope": "MEANZ TEST",
            "types": [
                "car_rental",
                "point_of_interest",
                "establishment"
            ],
            "user_ratings_total": 17,
            "vicinity": "Kissariat de la Foire, Ave Lalla Meryem, Fès 30050, Morocco ",
            "opening_hours": {
                "open_now": true
            }
        },
        {
            "business_status": "OPERATIONAL",
            "geometry": {
                "location": {
                    "lat": 34.0165017,
                    "lng": -4.9845369
                },
                "viewport": {
                    "northeast": {
                        "lat": 34.01785457989272,
                        "lng": -4.983181070107277
                    },
                    "southwest": {
                        "lat": 34.01515492010728,
                        "lng": -4.985880729892721
                    }
                }
            },
            "icon": "https://maps.gstatic.com/mapfiles/place_api/icons/v1/png_71/generic_business-71.png",
            "name": "Wego Rentin",
            "photos": null,
            "place_id": "ChIJ2VvntdeLnw0R8K76eGDiELQ",
            "rating": 0.0,
            "reference": "ChIJ2VvntdeLnw0R8K76eGDiELQ",
            "scope": "MEANZ TEST",
            "types": [
                "car_rental",
                "point_of_interest",
                "establishment"
            ],
            "user_ratings_total": 0,
            "vicinity": "144 Avenvue OUAFAE, Route de Sefrou, Fès 30000, Morocco ",
            "opening_hours": {
                "open_now": true
            }
        },
        {
            "business_status": "OPERATIONAL",
            "geometry": {
                "location": {
                    "lat": 34.0422255,
                    "lng": -4.9984685
                },
                "viewport": {
                    "northeast": {
                        "lat": 34.04360857989272,
                        "lng": -4.997182170107277
                    },
                    "southwest": {
                        "lat": 34.04090892010728,
                        "lng": -4.999881829892721
                    }
                }
            },
            "icon": "https://maps.gstatic.com/mapfiles/place_api/icons/v1/png_71/generic_business-71.png",
            "name": "Europcar",
            "photos": [
                {
                    "height": 4608,
                    "photo_reference": "ATtYBwLkW95EuepaMznPgIdyzBR862TrONYTSdJvty7Y3NW4DvMz4fev-w7jZi4iOGtfh2rJydlXIrmWXT3wefNEp46jCYEZAOGyaXSylWxgedmbDVXbONC_E8IWAwDwS_mFLABJDZ39wNfLsmTAIytp_l90zMI2wWjz0rioOvMJx5R83rxJ",
                    "width": 3456
                }
            ],
            "place_id": "ChIJ_YCoo7H0nw0RtmWGNQ756mY",
            "rating": 3.2,
            "reference": "ChIJ_YCoo7H0nw0RtmWGNQ756mY",
            "scope": "MEANZ TEST",
            "types": [
                "car_rental",
                "point_of_interest",
                "establishment"
            ],
            "user_ratings_total": 26,
            "vicinity": "45 Avenue Hassan II, Fès 30050, Morocco ",
            "opening_hours": {
                "open_now": true
            }
        },
        {
            "business_status": "OPERATIONAL",
            "geometry": {
                "location": {
                    "lat": 34.0229524,
                    "lng": -5.0166835
                },
                "viewport": {
                    "northeast": {
                        "lat": 34.02425207989273,
                        "lng": -5.015356270107278
                    },
                    "southwest": {
                        "lat": 34.02155242010728,
                        "lng": -5.018055929892721
                    }
                }
            },
            "icon": "https://maps.gstatic.com/mapfiles/place_api/icons/v1/png_71/generic_business-71.png",
            "name": "Samicar",
            "photos": [
                {
                    "height": 1024,
                    "photo_reference": "ATtYBwJB9hNnTp4vkXbqAGHlH7XQavFjx2xyOxlT4h9wvDKsEyYHAizMAwLAYkpl1rcmEvexLj_oZJXvJq25cMw_zeEUCHgnSousXJmg4gLXGCdo9uaotom1oYulYS2V814M3yuhDOoIw0p9box1KPrYn-XY2zECoMNUdTCvCaEy4qp8uIIH",
                    "width": 576
                }
            ],
            "place_id": "ChIJd1tsNkiLnw0R1Jxa2VBlhUk",
            "rating": 4.4,
            "reference": "ChIJd1tsNkiLnw0R1Jxa2VBlhUk",
            "scope": "MEANZ TEST",
            "types": [
                "car_rental",
                "point_of_interest",
                "establishment"
            ],
            "user_ratings_total": 7,
            "vicinity": "Avenue Mohammed bahnini ,centre commercial Anas، N71، Fes 30000, Morocco ",
            "opening_hours": null
        },
        {
            "business_status": "OPERATIONAL",
            "geometry": {
                "location": {
                    "lat": 34.0344416,
                    "lng": -5.005167
                },
                "viewport": {
                    "northeast": {
                        "lat": 34.03580842989273,
                        "lng": -5.003849170107278
                    },
                    "southwest": {
                        "lat": 34.03310877010728,
                        "lng": -5.006548829892722
                    }
                }
            },
            "icon": "https://maps.gstatic.com/mapfiles/place_api/icons/v1/png_71/generic_business-71.png",
            "name": "Dutch Rental Car",
            "photos": null,
            "place_id": "ChIJTyXj1ZWLnw0RHT6-9uMO4ZI",
            "rating": 0.0,
            "reference": "ChIJTyXj1ZWLnw0RHT6-9uMO4ZI",
            "scope": "MEANZ TEST",
            "types": [
                "car_rental",
                "point_of_interest",
                "establishment"
            ],
            "user_ratings_total": 0,
            "vicinity": "Avenue Allal Ben Abdellah, Espace Rihab, Imm. C, n°11, Fès 30050, Morocco ",
            "opening_hours": null
        },
        {
            "business_status": "OPERATIONAL",
            "geometry": {
                "location": {
                    "lat": 34.0083947,
                    "lng": -5.0159896
                },
                "viewport": {
                    "northeast": {
                        "lat": 34.00971632989273,
                        "lng": -5.014649070107278
                    },
                    "southwest": {
                        "lat": 34.00701667010728,
                        "lng": -5.017348729892722
                    }
                }
            },
            "icon": "https://maps.gstatic.com/mapfiles/place_api/icons/v1/png_71/generic_business-71.png",
            "name": "HISPANO CAR RENTAL",
            "photos": [
                {
                    "height": 1280,
                    "photo_reference": "ATtYBwJyXBlpz85q2n8HxE95H_DJs8Yx2qeFuHpPD-4-1s9YEai30W-HGqOdvi-k99Kilma9GBoIHMkGuchvSnLNwilT28PbpqgDJmN8vRzwLV2VgKJlPYKIyutdnoYnZLbWMQ1cbuRiHM4WjAlvRk2UcRPewWbfDCiIpEiWotKyZwwjoXgX",
                    "width": 720
                }
            ],
            "place_id": "ChIJZSnWre6Lnw0RgojevCUq4wM",
            "rating": 5.0,
            "reference": "ChIJZSnWre6Lnw0RgojevCUq4wM",
            "scope": "MEANZ TEST",
            "types": [
                "car_rental",
                "point_of_interest",
                "establishment"
            ],
            "user_ratings_total": 2,
            "vicinity": "RDC N309 Lotissement karaouyen, Fes 30050, Morocco ",
            "opening_hours": {
                "open_now": true
            }
        },
        {
            "business_status": "OPERATIONAL",
            "geometry": {
                "location": {
                    "lat": 33.9305978,
                    "lng": -4.9822321
                },
                "viewport": {
                    "northeast": {
                        "lat": 33.93205427989272,
                        "lng": -4.980878320107278
                    },
                    "southwest": {
                        "lat": 33.92935462010728,
                        "lng": -4.983577979892722
                    }
                }
            },
            "icon": "https://maps.gstatic.com/mapfiles/place_api/icons/v1/png_71/generic_business-71.png",
            "name": "AIRFLY CAR FEZ",
            "photos": [
                {
                    "height": 576,
                    "photo_reference": "ATtYBwKbYtT--4gM5O_0ywEHAcUtbTxngOnQz_BBkjIu19xt_MsaNeQuPtvDgeJuR80mXoXD-BsB86P17i0n3wsYJ2ZsftwmyX5u3xzFVNt95zOQIvNwEb_cZBSCAmBaSHfhn85oFAxpU91aV04PumlRygV3lFeH-2A0_aKNNM9dPxvJNiWu",
                    "width": 1022
                }
            ],
            "place_id": "ChIJ3W7fPcSJnw0Rqb-u2SZNiDw",
            "rating": 4.6,
            "reference": "ChIJ3W7fPcSJnw0Rqb-u2SZNiDw",
            "scope": "MEANZ TEST",
            "types": [
                "car_rental",
                "point_of_interest",
                "establishment"
            ],
            "user_ratings_total": 109,
            "vicinity": "Fes Aéroport, Fès 30000, Morocco ",
            "opening_hours": {
                "open_now": true
            }
        },
        {
            "business_status": "OPERATIONAL",
            "geometry": {
                "location": {
                    "lat": 34.0425137,
                    "lng": -5.0017695
                },
                "viewport": {
                    "northeast": {
                        "lat": 34.04387647989272,
                        "lng": -5.000409270107277
                    },
                    "southwest": {
                        "lat": 34.04117682010728,
                        "lng": -5.003108929892721
                    }
                }
            },
            "icon": "https://maps.gstatic.com/mapfiles/place_api/icons/v1/png_71/generic_business-71.png",
            "name": "Thrifty [Fès City]",
            "photos": null,
            "place_id": "ChIJGbmQ6c2Lnw0RiPliWk_YfWk",
            "rating": 0.0,
            "reference": "ChIJGbmQ6c2Lnw0RiPliWk_YfWk",
            "scope": "MEANZ TEST",
            "types": [
                "car_rental",
                "point_of_interest",
                "establishment"
            ],
            "user_ratings_total": 0,
            "vicinity": "Ave Lalla Meryem, Fes 30000, Morocco ",
            "opening_hours": {
                "open_now": true
            }
        },
        {
            "business_status": "OPERATIONAL",
            "geometry": {
                "location": {
                    "lat": 33.9316933,
                    "lng": -4.9826117
                },
                "viewport": {
                    "northeast": {
                        "lat": 33.93286687989272,
                        "lng": -4.981259770107277
                    },
                    "southwest": {
                        "lat": 33.93016722010728,
                        "lng": -4.983959429892721
                    }
                }
            },
            "icon": "https://maps.gstatic.com/mapfiles/place_api/icons/v1/png_71/generic_business-71.png",
            "name": "Hertz [Fès Airport]",
            "photos": [
                {
                    "height": 900,
                    "photo_reference": "ATtYBwIsf6jsUao2Yoxu0tVQalFIsculFTuQEzUejGojGT92UX1vy5fLczRzoAsgQdZ7SaKFFVYP6sEM3QsAlgaIohyqQwgz6BoE6o8LCdmM5ot0YHzFWjVhiTnGhOPNfCuORHlvgGud6_-nQ7OjefR5k_lt7imxiEoGwIE27IiZI87kCha7",
                    "width": 1600
                }
            ],
            "place_id": "ChIJOyfyji2Jnw0R2FDKDcV8vA0",
            "rating": 2.3,
            "reference": "ChIJOyfyji2Jnw0R2FDKDcV8vA0",
            "scope": "MEANZ TEST",
            "types": [
                "car_rental",
                "point_of_interest",
                "establishment"
            ],
            "user_ratings_total": 103,
            "vicinity": "Aéroport Fès Saiss, Fès 30000, Morocco ",
            "opening_hours": {
                "open_now": true
            }
        },
        {
            "business_status": "OPERATIONAL",
            "geometry": {
                "location": {
                    "lat": 34.0194188,
                    "lng": -4.984727599999999
                },
                "viewport": {
                    "northeast": {
                        "lat": 34.02072007989272,
                        "lng": -4.983405020107277
                    },
                    "southwest": {
                        "lat": 34.01802042010728,
                        "lng": -4.986104679892721
                    }
                }
            },
            "icon": "https://maps.gstatic.com/mapfiles/place_api/icons/v1/png_71/generic_business-71.png",
            "name": "Sezo Car",
            "photos": null,
            "place_id": "ChIJC76ZNGWLnw0RvcDmZFTC8Sg",
            "rating": 4.6,
            "reference": "ChIJC76ZNGWLnw0RvcDmZFTC8Sg",
            "scope": "MEANZ TEST",
            "types": [
                "car_rental",
                "point_of_interest",
                "establishment"
            ],
            "user_ratings_total": 9,
            "vicinity": "34 Avenue Al-Quaraouiyine Narjiss، Fes 30000, Morocco ",
            "opening_hours": {
                "open_now": null
            }
        },
        {
            "business_status": "OPERATIONAL",
            "geometry": {
                "location": {
                    "lat": 33.9305578,
                    "lng": -4.9824738
                },
                "viewport": {
                    "northeast": {
                        "lat": 33.93203757989272,
                        "lng": -4.981118120107278
                    },
                    "southwest": {
                        "lat": 33.92933792010728,
                        "lng": -4.983817779892722
                    }
                }
            },
            "icon": "https://maps.gstatic.com/mapfiles/place_api/icons/v1/png_71/generic_business-71.png",
            "name": "AVIS® - Location de Voiture Fès Aéroport",
            "photos": [
                {
                    "height": 356,
                    "photo_reference": "ATtYBwICqWHMgvn98BZLudhRqWJyL2kBIvTCdUoPRVyPL-3HYhYqgaR-w2Mo4WQGblopTE78FnQBu1KcYvB1tqeSq1_uVIz8oQEk5jIOb-AAeOgTi2nhinkIVTXxhBLckieJvRy6x965q0mlGvU5Q-M-fv2mDXBqEqV4HF6hgcbYTOkp94Iw",
                    "width": 742
                }
            ],
            "place_id": "ChIJI4GG-DGJnw0RibjB96hTQ1Y",
            "rating": 4.9,
            "reference": "ChIJI4GG-DGJnw0RibjB96hTQ1Y",
            "scope": "MEANZ TEST",
            "types": [
                "car_rental",
                "point_of_interest",
                "establishment"
            ],
            "user_ratings_total": 241,
            "vicinity": "Aéroport Fez، Saïss, Morocco ",
            "opening_hours": {
                "open_now": true
            }
        },
        {
            "business_status": "OPERATIONAL",
            "geometry": {
                "location": {
                    "lat": 34.0358662,
                    "lng": -4.9960551
                },
                "viewport": {
                    "northeast": {
                        "lat": 34.03721672989272,
                        "lng": -4.994680470107278
                    },
                    "southwest": {
                        "lat": 34.03451707010728,
                        "lng": -4.997380129892722
                    }
                }
            },
            "icon": "https://maps.gstatic.com/mapfiles/place_api/icons/v1/png_71/generic_business-71.png",
            "name": "AIRCAR",
            "photos": null,
            "place_id": "ChIJPdNqzWGLnw0RzIVx70bBdVY",
            "rating": 0.0,
            "reference": "ChIJPdNqzWGLnw0RzIVx70bBdVY",
            "scope": "MEANZ TEST",
            "types": [
                "car_rental",
                "point_of_interest",
                "establishment"
            ],
            "user_ratings_total": 0,
            "vicinity": "64 Avenue Mohamed Slaoui, Fès 30000, Morocco ",
            "opening_hours": {
                "open_now": true
            }
        },
        {
            "business_status": "OPERATIONAL",
            "geometry": {
                "location": {
                    "lat": 34.0473734,
                    "lng": -5.0052989
                },
                "viewport": {
                    "northeast": {
                        "lat": 34.04877702989272,
                        "lng": -5.003769020107278
                    },
                    "southwest": {
                        "lat": 34.04607737010728,
                        "lng": -5.006468679892722
                    }
                }
            },
            "icon": "https://maps.gstatic.com/mapfiles/place_api/icons/v1/png_71/generic_business-71.png",
            "name": "Hertz [Fez Railway]",
            "photos": null,
            "place_id": "ChIJiQ2GhY2Lnw0R5J-zUby9VIo",
            "rating": 0.0,
            "reference": "ChIJiQ2GhY2Lnw0R5J-zUby9VIo",
            "scope": "MEANZ TEST",
            "types": [
                "car_rental",
                "point_of_interest",
                "establishment"
            ],
            "user_ratings_total": 0,
            "vicinity": "Ave des Almohades, Fes 30050, Morocco ",
            "opening_hours": {
                "open_now": true
            }
        }
    ]
}