{
    "results": [
        {
            "business_status": "OPERATIONAL",
            "geometry": {
                "location": {
                    "lat": 35.763795,
                    "lng": -5.818667
                },
                "viewport": {
                    "northeast": {
                        "lat": 35.7651349302915,
                        "lng": -5.817298619708498
                    },
                    "southwest": {
                        "lat": 35.7624369697085,
                        "lng": -5.819996580291503
                    }
                }
            },
            "icon": "https://maps.gstatic.com/mapfiles/place_api/icons/v1/png_71/generic_business-71.png",
            "name": "212Traveler",
            "photos": [
                {
                    "height": 4864,
                    "photo_reference": "ATtYBwLP23lmgILcCbueZ2MlBi7964iXjacGx1qFzPcNKjUXqc-Fnmua663TnGfOMyix4oBZCt63NWPQFIlHSyWaW_uI94PtmnJ91C7ey5gpX-30mMe8oHVPTJOcfhGqq13v3OaFVaEUeJYJk7NS5aerzXVjnEzhLT3g6j8lAzX4nPxyfW3c",
                    "width": 2736
                }
            ],
            "place_id": "ChIJLWeq0FKHCw0Rt-vIaRF_YN8",
            "rating": 3.4,
            "reference": "ChIJLWeq0FKHCw0Rt-vIaRF_YN8",
            "scope": "MEANZ TEST",
            "types": [
                "null",
                "car_rental",
                "null",
                "null",
                "point_of_interest",
                "establishment"
            ],
            "user_ratings_total": 10,
            "vicinity": "Avenue Moulay Abdelaziz, Tanger",
            "opening_hours": {
                "open_now": true
            }
        },
        {
            "business_status": "OPERATIONAL",
            "geometry": {
                "location": {
                    "lat": 35.7527736,
                    "lng": -5.8459547
                },
                "viewport": {
                    "northeast": {
                        "lat": 35.7540985302915,
                        "lng": -5.844628719708497
                    },
                    "southwest": {
                        "lat": 35.7514005697085,
                        "lng": -5.847326680291501
                    }
                }
            },
            "icon": "https://maps.gstatic.com/mapfiles/place_api/icons/v1/png_71/generic_business-71.png",
            "name": "AHMAD IAD",
            "photos": [
                {
                    "height": 4724,
                    "photo_reference": "ATtYBwJDWUs_qWLUWxahMwdiOjkfMit3OP1nbKH1h9Z_lh8fd2Pjq6ts7RDmMFCQBMwVWiHFuI5gj1cHOT9I4e8WvkOjTTi99R8aUEhDwlA-PoggljZHimrtF_inSHLJ5dWXPBglwlCTtxDk8rurbKbQ7FHCRqSjXpeIsNk2_gANJx_JTrKd",
                    "width": 10039
                }
            ],
            "place_id": "ChIJ8WjrXiuHCw0RVL4WiFO1oKY",
            "rating": null,
            "reference": "ChIJ8WjrXiuHCw0RVL4WiFO1oKY",
            "scope": "MEANZ TEST",
            "types": [
                "car_rental",
                "point_of_interest",
                "establishment"
            ],
            "user_ratings_total": null,
            "vicinity": "Quartier kherba azib haj kaddour RES ATLANTIC LOCAL N 18 90000 TANGER MEDINA",
            "opening_hours": {
                "open_now": true
            }
        },
        {
            "business_status": "OPERATIONAL",
            "geometry": {
                "location": {
                    "lat": 35.7266895,
                    "lng": -5.914941999999999
                },
                "viewport": {
                    "northeast": {
                        "lat": 35.7280345302915,
                        "lng": -5.913510819708497
                    },
                    "southwest": {
                        "lat": 35.7253365697085,
                        "lng": -5.916208780291502
                    }
                }
            },
            "icon": "https://maps.gstatic.com/mapfiles/place_api/icons/v1/png_71/generic_business-71.png",
            "name": "AIRCAR - ADA",
            "photos": null,
            "place_id": "ChIJTzS2La2JCw0RpKF8l5ML0pU",
            "rating": 5.0,
            "reference": "ChIJTzS2La2JCw0RpKF8l5ML0pU",
            "scope": "MEANZ TEST",
            "types": [
                "car_rental",
                "point_of_interest",
                "establishment"
            ],
            "user_ratings_total": 1,
            "vicinity": "Terminal 1, Ibn Batouta, Tanger",
            "opening_hours": {
                "open_now": true
            }
        },
        {
            "business_status": "OPERATIONAL",
            "geometry": {
                "location": {
                    "lat": 35.7617911,
                    "lng": -5.7984035
                },
                "viewport": {
                    "northeast": {
                        "lat": 35.7631484302915,
                        "lng": -5.797022119708497
                    },
                    "southwest": {
                        "lat": 35.7604504697085,
                        "lng": -5.799720080291502
                    }
                }
            },
            "icon": "https://maps.gstatic.com/mapfiles/place_api/icons/v1/png_71/generic_business-71.png",
            "name": "AIRLINE AUTO",
            "photos": null,
            "place_id": "ChIJJSEnyomBCw0RTpfFZPfE2tE",
            "rating": null,
            "reference": "ChIJJSEnyomBCw0RTpfFZPfE2tE",
            "scope": "MEANZ TEST",
            "types": [
                "car_rental",
                "point_of_interest",
                "establishment"
            ],
            "user_ratings_total": null,
            "vicinity": "belle vue, Tanger",
            "opening_hours": null
        },
        {
            "business_status": "OPERATIONAL",
            "geometry": {
                "location": {
                    "lat": 35.7715529,
                    "lng": -5.816324399999999
                },
                "viewport": {
                    "northeast": {
                        "lat": 35.7728455802915,
                        "lng": -5.814960669708499
                    },
                    "southwest": {
                        "lat": 35.7701476197085,
                        "lng": -5.817658630291503
                    }
                }
            },
            "icon": "https://maps.gstatic.com/mapfiles/place_api/icons/v1/png_71/generic_business-71.png",
            "name": "AOUTOMA | Location De Voitures | كراء السيارات",
            "photos": [
                {
                    "height": 2268,
                    "photo_reference": "ATtYBwJuyHMYjkhiOjI27bBr-H2tO0ZGWVOWInBcBIltFQX-l73BRzGqHbHBNQ5Grq2iarFD4IViYkvyLP8qSBUQZ4Og5zfBoAR81ZqnnoiHQSIqynooIv8zUDswP0i3k_l6ShoVsk8VRazRZ9U_zuGgkpWS6wTrz896oUQx9bA3rMXY0c-F",
                    "width": 4032
                }
            ],
            "place_id": "ChIJT0Vg4RKHCw0R6qjoaDAjDuo",
            "rating": 5.0,
            "reference": "ChIJT0Vg4RKHCw0R6qjoaDAjDuo",
            "scope": "MEANZ TEST",
            "types": [
                "car_rental",
                "null",
                "point_of_interest",
                "establishment"
            ],
            "user_ratings_total": 105,
            "vicinity": "N 31, residence al warda bv, Rue Bir Anzarane, Tanger",
            "opening_hours": {
                "open_now": true
            }
        },
        {
            "business_status": "OPERATIONAL",
            "geometry": {
                "location": {
                    "lat": 35.773158,
                    "lng": -5.812069699999999
                },
                "viewport": {
                    "northeast": {
                        "lat": 35.77448123029149,
                        "lng": -5.810761369708497
                    },
                    "southwest": {
                        "lat": 35.77178326970849,
                        "lng": -5.813459330291502
                    }
                }
            },
            "icon": "https://maps.gstatic.com/mapfiles/place_api/icons/v1/png_71/generic_business-71.png",
            "name": "ARB'S CAR",
            "photos": [
                {
                    "height": 3024,
                    "photo_reference": "ATtYBwL3i07NlfKzcVo5lVVqqmQCw1xJbLIH1olyTVllKqCITO6nMypz60CW80x7RKBBz6sqn3f2vxiwICsK8GCsAbmlq551nGCPQoMIol4668hIbJekr_Cy5SqDCIwV8TNL0KylWkAme0_cwm8zdpDke-Va8JJQWq00n9Urrt5WJu13HnKE",
                    "width": 4032
                }
            ],
            "place_id": "ChIJyWsD8aqACw0RebVMSX68p9w",
            "rating": 4.2,
            "reference": "ChIJyWsD8aqACw0RebVMSX68p9w",
            "scope": "MEANZ TEST",
            "types": [
                "car_rental",
                "point_of_interest",
                "establishment"
            ],
            "user_ratings_total": 6,
            "vicinity": "Rue Montak Roudani, Tanger",
            "opening_hours": {
                "open_now": true
            }
        },
        {
            "business_status": "OPERATIONAL",
            "geometry": {
                "location": {
                    "lat": 35.72969310000001,
                    "lng": -5.8457508
                },
                "viewport": {
                    "northeast": {
                        "lat": 35.7310521802915,
                        "lng": -5.844400419708498
                    },
                    "southwest": {
                        "lat": 35.7283542197085,
                        "lng": -5.847098380291502
                    }
                }
            },
            "icon": "https://maps.gstatic.com/mapfiles/place_api/icons/v1/png_71/generic_business-71.png",
            "name": "ASSAFAE CAR",
            "photos": [
                {
                    "height": 1920,
                    "photo_reference": "ATtYBwKonniYFeLe2UUrb8celIiR3Wjku339mHgyk8UNkotKKjUYqIQq61-Kohalesob3UJZnjD9mj1Sm0k0RDO5JLezzOeX_IgFwLqZKBuapTlp-mj2PGViZgG_q4ebu1RZNJdADXRzJ0hNeJM8D7hKb6GqxB6kdWen460rplq7POq2kezq",
                    "width": 1080
                }
            ],
            "place_id": "ChIJg3_WlfyHCw0RP2y6apoGJTw",
            "rating": 3.3,
            "reference": "ChIJg3_WlfyHCw0RP2y6apoGJTw",
            "scope": "MEANZ TEST",
            "types": [
                "car_rental",
                "point_of_interest",
                "establishment"
            ],
            "user_ratings_total": 3,
            "vicinity": "Complexe Ajial, Tanger",
            "opening_hours": {
                "open_now": true
            }
        },
        {
            "business_status": "OPERATIONAL",
            "geometry": {
                "location": {
                    "lat": 35.7694504,
                    "lng": -5.809461799999999
                },
                "viewport": {
                    "northeast": {
                        "lat": 35.7708085302915,
                        "lng": -5.808110019708498
                    },
                    "southwest": {
                        "lat": 35.7681105697085,
                        "lng": -5.810807980291503
                    }
                }
            },
            "icon": "https://maps.gstatic.com/mapfiles/place_api/icons/v1/png_71/generic_business-71.png",
            "name": "AUTO NAIT",
            "photos": [
                {
                    "height": 650,
                    "photo_reference": "ATtYBwLZSGFOjSE0gk1fZhbmN2rBrVeb932PhNdpt182Ek1Rvz6dwDPXifVqdHSp8d57k4Urf1rJbb0keZ8556fmEvRWBd4m1LHq-Qh8BvOcgZ-J32ZGLL5Od5ADkRpi_ihdpWIirRrBq5gnK7mP8FzExG6XI6netY2lQoiWA_AzwVWCbEjJ",
                    "width": 1005
                }
            ],
            "place_id": "ChIJfXzKiw-BCw0RRL0xUGpJMwU",
            "rating": 5.0,
            "reference": "ChIJfXzKiw-BCw0RRL0xUGpJMwU",
            "scope": "MEANZ TEST",
            "types": [
                "car_rental",
                "point_of_interest",
                "establishment"
            ],
            "user_ratings_total": 3,
            "vicinity": "magasin n°3, Résidence, Avenue Abi Al Hassan Achadli, Tanger",
            "opening_hours": {
                "open_now": true
            }
        },
        {
            "business_status": "OPERATIONAL",
            "geometry": {
                "location": {
                    "lat": 35.7763969,
                    "lng": -5.801613100000001
                },
                "viewport": {
                    "northeast": {
                        "lat": 35.7777458802915,
                        "lng": -5.800263869708498
                    },
                    "southwest": {
                        "lat": 35.7750479197085,
                        "lng": -5.802961830291503
                    }
                }
            },
            "icon": "https://maps.gstatic.com/mapfiles/place_api/icons/v1/png_71/generic_business-71.png",
            "name": "AUTO VIENNA",
            "photos": null,
            "place_id": "ChIJ2fKSJJ1_DA0RRFKfmfRTXKQ",
            "rating": null,
            "reference": "ChIJ2fKSJJ1_DA0RRFKfmfRTXKQ",
            "scope": "MEANZ TEST",
            "types": [
                "car_rental",
                "point_of_interest",
                "establishment"
            ],
            "user_ratings_total": null,
            "vicinity": "Rue de Marseille, Tanger",
            "opening_hours": {
                "open_now": true
            }
        },
        {
            "business_status": "OPERATIONAL",
            "geometry": {
                "location": {
                    "lat": 35.72681010000001,
                    "lng": -5.9144849
                },
                "viewport": {
                    "northeast": {
                        "lat": 35.7282262802915,
                        "lng": -5.913162369708498
                    },
                    "southwest": {
                        "lat": 35.7255283197085,
                        "lng": -5.915860330291503
                    }
                }
            },
            "icon": "https://maps.gstatic.com/mapfiles/place_api/icons/v1/png_71/generic_business-71.png",
            "name": "AVIS®",
            "photos": [
                {
                    "height": 536,
                    "photo_reference": "ATtYBwIi9r4aDcLHpcO7bH4x2D9B-ae8Ewg60swLg7cxBlV6LeNfyNvjfWdCXJoH3cD5XlhAGJDqWPnmhW05iR1f8vwOs8Grefu1qle95xxW9RCnkQ95uNMWSYxo5Jfij5mASi3jK1LbHCDazBgdmQ9aYMGL8xXUKc8lnpx3VlRWKH_cZ9Tq",
                    "width": 800
                }
            ],
            "place_id": "ChIJ3ZGkzc2JCw0RtdGd5fay_8U",
            "rating": 4.8,
            "reference": "ChIJ3ZGkzc2JCw0RtdGd5fay_8U",
            "scope": "MEANZ TEST",
            "types": [
                "car_rental",
                "point_of_interest",
                "establishment"
            ],
            "user_ratings_total": 95,
            "vicinity": "Aéroport de Tanger-Ibn Battouta, Tanger",
            "opening_hours": {
                "open_now": true
            }
        },
        {
            "business_status": "OPERATIONAL",
            "geometry": {
                "location": {
                    "lat": 35.7148163,
                    "lng": -5.905770400000001
                },
                "viewport": {
                    "northeast": {
                        "lat": 35.71611813029151,
                        "lng": -5.904454369708498
                    },
                    "southwest": {
                        "lat": 35.71342016970851,
                        "lng": -5.907152330291503
                    }
                }
            },
            "icon": "https://maps.gstatic.com/mapfiles/place_api/icons/v1/png_71/generic_business-71.png",
            "name": "AVIS®",
            "photos": [
                {
                    "height": 365,
                    "photo_reference": "ATtYBwL5K_cK2ao5V4-AgTfWi4HHrvLzeyIJ22W8qtYDN8B5kjNrpZgzZHXqXLD6YG-o3_RZwgdiJOVw64tfQbLwVN28tJrtf1FAt8xW5C5pNVdmto4SMCcs59N_LnV4QwgDc1uQSW1kkAGRxfO268ZaUdSomQfbz5CvD_jIO94WUWJH1xyc",
                    "width": 751
                }
            ],
            "place_id": "ChIJyTTYgu6ICw0RrY6vaQ3HeXA",
            "rating": 4.7,
            "reference": "ChIJyTTYgu6ICw0RrY6vaQ3HeXA",
            "scope": "MEANZ TEST",
            "types": [
                "car_rental",
                "point_of_interest",
                "establishment"
            ],
            "user_ratings_total": 113,
            "vicinity": "Lot 84 A, Zone franche boukhalef, Route de Rabat, Tanger",
            "opening_hours": {
                "open_now": true
            }
        },
        {
            "business_status": "OPERATIONAL",
            "geometry": {
                "location": {
                    "lat": 35.7632634,
                    "lng": -5.8493249
                },
                "viewport": {
                    "northeast": {
                        "lat": 35.7646192802915,
                        "lng": -5.847971569708498
                    },
                    "southwest": {
                        "lat": 35.7619213197085,
                        "lng": -5.850669530291503
                    }
                }
            },
            "icon": "https://maps.gstatic.com/mapfiles/place_api/icons/v1/png_71/generic_business-71.png",
            "name": "AZD Car",
            "photos": [
                {
                    "height": 3024,
                    "photo_reference": "ATtYBwIn9_8ObEGR9NSpjFYnHTG4vUjY5X9-brWXh5dANT5wYtsWkbNyjgtI2-L1j7W1C_VxEJ-0E8Lro64m8BtlCpUkV6J_xGGK1TnBkosUROyqiYe0qXN-2Ps-kIWlHNdIlT1uYblwobhBlHU_A7VmWMZr3s7FwHVMxYwokVKNZHyb59TV",
                    "width": 4032
                }
            ],
            "place_id": "ChIJuTnrdyaHCw0R68jifWwl9tU",
            "rating": 5.0,
            "reference": "ChIJuTnrdyaHCw0R68jifWwl9tU",
            "scope": "MEANZ TEST",
            "types": [
                "car_rental",
                "point_of_interest",
                "establishment"
            ],
            "user_ratings_total": 1,
            "vicinity": "Tangier",
            "opening_hours": {
                "open_now": true
            }
        },
        {
            "business_status": "OPERATIONAL",
            "geometry": {
                "location": {
                    "lat": 35.7504886,
                    "lng": -5.8191235
                },
                "viewport": {
                    "northeast": {
                        "lat": 35.7518121302915,
                        "lng": -5.817734419708498
                    },
                    "southwest": {
                        "lat": 35.7491141697085,
                        "lng": -5.820432380291503
                    }
                }
            },
            "icon": "https://maps.gstatic.com/mapfiles/place_api/icons/v1/png_71/generic_business-71.png",
            "name": "Aaliye Car",
            "photos": [
                {
                    "height": 532,
                    "photo_reference": "ATtYBwJQ0WWLBuxDkwt_3yRV3bujOshSciBULRkEmpEZJHKfAdsT8Ey9zkDhMowtSsk1xcTV0kz8JKB9YfahFCexTmtjqhCF2SXn0bnF9MG8EunybprurLy690FF_FK2DPPJE-206s0wPxKq4XhT7O_ZclDdR1kLieD8QqkeVPPX3OFStkOD",
                    "width": 945
                }
            ],
            "place_id": "ChIJD0rx2V6BCw0R7qSmc-0_MmM",
            "rating": 5.0,
            "reference": "ChIJD0rx2V6BCw0R7qSmc-0_MmM",
            "scope": "MEANZ TEST",
            "types": [
                "car_rental",
                "point_of_interest",
                "establishment"
            ],
            "user_ratings_total": 3,
            "vicinity": "Hay Béni Khaldoun Rue 20, Route de Tetouan, Tanger",
            "opening_hours": {
                "open_now": true
            }
        },
        {
            "business_status": "OPERATIONAL",
            "geometry": {
                "location": {
                    "lat": 35.77101369999999,
                    "lng": -5.806507399999999
                },
                "viewport": {
                    "northeast": {
                        "lat": 35.77235073029151,
                        "lng": -5.805180169708496
                    },
                    "southwest": {
                        "lat": 35.76965276970851,
                        "lng": -5.807878130291501
                    }
                }
            },
            "icon": "https://maps.gstatic.com/mapfiles/place_api/icons/v1/png_71/generic_business-71.png",
            "name": "Abbey Car",
            "photos": [
                {
                    "height": 1331,
                    "photo_reference": "ATtYBwLqeobN2VBuO7SUPTUBp15GT8-HWtOFOuz2eVoEh3KaDDvbRvI-8jbFLS9OEI_vC6hB9l2VyUmiGqpLVoOnbOHOmRNq2-lA9or3Tv87irekAF1jB6hxoga4T-m7H0yGZtXI5Qvvl6BNHM5gz63ZOFlhFAvZA6taBxicF3ttUfInd5Wo",
                    "width": 2048
                }
            ],
            "place_id": "ChIJR874IKmACw0RIxDArfcFN3U",
            "rating": null,
            "reference": "ChIJR874IKmACw0RIxDArfcFN3U",
            "scope": "MEANZ TEST",
            "types": [
                "car_rental",
                "point_of_interest",
                "establishment"
            ],
            "user_ratings_total": null,
            "vicinity": "183 b55, Avenue Prince Héritier, Tangier",
            "opening_hours": null
        },
        {
            "business_status": "OPERATIONAL",
            "geometry": {
                "location": {
                    "lat": 35.778367,
                    "lng": -5.807701
                },
                "viewport": {
                    "northeast": {
                        "lat": 35.7797426302915,
                        "lng": -5.806316369708497
                    },
                    "southwest": {
                        "lat": 35.7770446697085,
                        "lng": -5.809014330291502
                    }
                }
            },
            "icon": "https://maps.gstatic.com/mapfiles/place_api/icons/v1/png_71/generic_business-71.png",
            "name": "Abid Cars Agence de Tanger",
            "photos": [
                {
                    "height": 288,
                    "photo_reference": "ATtYBwLvma1006rknHhM1btwi5O0g3g36Dfb9hqyiBsu9HlKZ-dSrwO3QXScYfSxRfnQwHHT-VYl5JWIIQPl_Ecixtur_sBlpXnapcdMXmqxiyPGFb3DS59BzHSYJI_NBKbAe7fj2HXj_221JdmLEM8CUu4EjNlYkqooxIfBsyLwISflcf5B",
                    "width": 1200
                }
            ],
            "place_id": "ChIJ31qzjFZ_DA0RnDAMmprbTO4",
            "rating": 4.9,
            "reference": "ChIJ31qzjFZ_DA0RnDAMmprbTO4",
            "scope": "MEANZ TEST",
            "types": [
                "car_rental",
                "point_of_interest",
                "establishment"
            ],
            "user_ratings_total": 7,
            "vicinity": "40, Boulevard MED 5, Résd Dounia N4B, Tanger",
            "opening_hours": null
        },
        {
            "business_status": "OPERATIONAL",
            "geometry": {
                "location": {
                    "lat": 35.7858028,
                    "lng": -5.817407999999999
                },
                "viewport": {
                    "northeast": {
                        "lat": 35.7871701802915,
                        "lng": -5.816064619708498
                    },
                    "southwest": {
                        "lat": 35.7844722197085,
                        "lng": -5.818762580291502
                    }
                }
            },
            "icon": "https://maps.gstatic.com/mapfiles/place_api/icons/v1/png_71/generic_business-71.png",
            "name": "Aby Travel Cars (AbCars Tanger)",
            "photos": [
                {
                    "height": 312,
                    "photo_reference": "ATtYBwKVTSWTNQW4TkHGvvJHoOqAM4II3jS7fwF-dTEV5z9NByfbc3RBdkkFP6t_0xBN2qPJw_uQA1wSb5JkmykIKOruxoy3nt90-6fEqfheDvvnmr2saOPRBU-6TeagIUhQuks_YsO_TbOIpAzZoCU_5n2myGq6IBYLjLJoeI4nFdZz6NXv",
                    "width": 556
                }
            ],
            "place_id": "ChIJJ6ltqaWHCw0RUZvyb1jEb5M",
            "rating": 5.0,
            "reference": "ChIJJ6ltqaWHCw0RUZvyb1jEb5M",
            "scope": "MEANZ TEST",
            "types": [
                "car_rental",
                "null",
                "point_of_interest",
                "establishment"
            ],
            "user_ratings_total": 15,
            "vicinity": "N 73, Avenue Hassan I, Tanger",
            "opening_hours": {
                "open_now": true
            }
        },
        {
            "business_status": "OPERATIONAL",
            "geometry": {
                "location": {
                    "lat": 35.72659549999999,
                    "lng": -5.915068299999999
                },
                "viewport": {
                    "northeast": {
                        "lat": 35.7279573302915,
                        "lng": -5.913574069708498
                    },
                    "southwest": {
                        "lat": 35.7252593697085,
                        "lng": -5.916272030291502
                    }
                }
            },
            "icon": "https://maps.gstatic.com/mapfiles/place_api/icons/v1/png_71/generic_business-71.png",
            "name": "Agence Bouhaja Car",
            "photos": [
                {
                    "height": 1280,
                    "photo_reference": "ATtYBwJXeMKBwHAc7rFq1tCyANQTff2WDtZPp1ABc0AfGsmJdPwF7cB1-s6xY3HhbOE4j4Zwnlz67Gn9QTmtYNqIcIofswIvGIVKvYQgaWgsD9JysRgybGW0yhWzACDqP0bqlnhP_q_6KYL5q8skZMeqXo1UFn83lRrCV3bxkPULGbv4zVFp",
                    "width": 558
                }
            ],
            "place_id": "ChIJ6xXpJPCJCw0RliZbIK61We8",
            "rating": null,
            "reference": "ChIJ6xXpJPCJCw0RliZbIK61We8",
            "scope": "MEANZ TEST",
            "types": [
                "car_rental",
                "point_of_interest",
                "establishment"
            ],
            "user_ratings_total": null,
            "vicinity": "Tangier Ibn Battuta Airport, Tanger",
            "opening_hours": null
        },
        {
            "business_status": "OPERATIONAL",
            "geometry": {
                "location": {
                    "lat": 35.773612,
                    "lng": -5.8168326
                },
                "viewport": {
                    "northeast": {
                        "lat": 35.77493948029151,
                        "lng": -5.815511969708497
                    },
                    "southwest": {
                        "lat": 35.77224151970851,
                        "lng": -5.818209930291502
                    }
                }
            },
            "icon": "https://maps.gstatic.com/mapfiles/place_api/icons/v1/png_71/generic_business-71.png",
            "name": "Agence Location Voiture Tanger",
            "photos": [
                {
                    "height": 3024,
                    "photo_reference": "ATtYBwK3xZIgNcb19OtvwR2cunfmMYYh3B1bL_WeAflA0DvWf7Z11nH26tuwW56Ai9rqXY2dOFp0k5TOi05NSTnXAYBseMIuCMRh4hR2pIQoKbrLcgHeVmEO7g-XZttPE2k4hM4Su9Ql8kU6_t_sBXDuNip0FZlpBbTECBiv-ijT1cE895A0",
                    "width": 4032
                }
            ],
            "place_id": "ChIJt32TBrOHCw0R9fHJ31n9e4M",
            "rating": 5.0,
            "reference": "ChIJt32TBrOHCw0R9fHJ31n9e4M",
            "scope": "MEANZ TEST",
            "types": [
                "car_rental",
                "point_of_interest",
                "establishment"
            ],
            "user_ratings_total": 3,
            "vicinity": "Avenue Sidi Mohamed Ben Abdellah, Tanger",
            "opening_hours": {
                "open_now": true
            }
        },
        {
            "business_status": "OPERATIONAL",
            "geometry": {
                "location": {
                    "lat": 35.72724769999999,
                    "lng": -5.9056871
                },
                "viewport": {
                    "northeast": {
                        "lat": 35.7286281302915,
                        "lng": -5.904340619708497
                    },
                    "southwest": {
                        "lat": 35.7259301697085,
                        "lng": -5.907038580291501
                    }
                }
            },
            "icon": "https://maps.gstatic.com/mapfiles/place_api/icons/v1/png_71/generic_business-71.png",
            "name": "Agence Monaloc Location Voiture Tanger",
            "photos": [
                {
                    "height": 640,
                    "photo_reference": "ATtYBwKpZOh8CsD5-gsF2HWg6HrVJBEeOKLO6B7FJO4PWoYrXtH7gNJDLnGlx40b1ks6cZkaK3-ZqzXpo-GbBcSdSXg1p8NV1J45c2Ijg4m3LSSZReIF4b4dbZF4oxC-b3ESEw5UbfWqPi-HBLbaLBIqnTfgWjDpr1KAvwuKrJcoBtlPiQtc",
                    "width": 1024
                }
            ],
            "place_id": "ChIJl0MLOe2JCw0Rxd0wUlakC7k",
            "rating": 4.7,
            "reference": "ChIJl0MLOe2JCw0Rxd0wUlakC7k",
            "scope": "MEANZ TEST",
            "types": [
                "car_rental",
                "point_of_interest",
                "establishment"
            ],
            "user_ratings_total": 23,
            "vicinity": "Route Aeroport, Tanger",
            "opening_hours": {
                "open_now": true
            }
        },
        {
            "business_status": "CLOSED_TEMPORARILY",
            "geometry": {
                "location": {
                    "lat": 35.7756422,
                    "lng": -5.800809
                },
                "viewport": {
                    "northeast": {
                        "lat": 35.7769778302915,
                        "lng": -5.799465319708498
                    },
                    "southwest": {
                        "lat": 35.7742798697085,
                        "lng": -5.802163280291502
                    }
                }
            },
            "icon": "https://maps.gstatic.com/mapfiles/place_api/icons/v1/png_71/generic_business-71.png",
            "name": "Agence Nord Location des voitures rent car tanger",
            "photos": [
                {
                    "height": 607,
                    "photo_reference": "ATtYBwKDXh6j-ydMuKjvIo7QI9NrpxYU-jVdWvoE8g0q3s8sxg4fZN1K-Pj--DYciqP0BbhxVKgHcxjLlsLq-CIKVFYFf3qRYqmjFhSVCnd7NpiFr21rB8hk3FwOWxhNPi_JWzxR5g6-VISf6O5pftMS2xP8S7H4uxCFF25197-qFuX4U500",
                    "width": 1080
                }
            ],
            "place_id": "ChIJp3FBzASHCw0RH2kBZoJR_G4",
            "rating": 4.8,
            "reference": "ChIJp3FBzASHCw0RH2kBZoJR_G4",
            "scope": "MEANZ TEST",
            "types": [
                "car_rental",
                "point_of_interest",
                "establishment"
            ],
            "user_ratings_total": 19,
            "vicinity": "Avenue Mohammed V, Tangier",
            "opening_hours": null
        },
        {
            "business_status": "OPERATIONAL",
            "geometry": {
                "location": {
                    "lat": 35.7707212,
                    "lng": -5.819301499999999
                },
                "viewport": {
                    "northeast": {
                        "lat": 35.77214168029149,
                        "lng": -5.817981519708496
                    },
                    "southwest": {
                        "lat": 35.7694437197085,
                        "lng": -5.820679480291501
                    }
                }
            },
            "icon": "https://maps.gstatic.com/mapfiles/place_api/icons/v1/png_71/generic_business-71.png",
            "name": "Agence Paco Car",
            "photos": null,
            "place_id": "ChIJJ_yTzqCACw0RM5GjbTfiPBQ",
            "rating": 5.0,
            "reference": "ChIJJ_yTzqCACw0RM5GjbTfiPBQ",
            "scope": "MEANZ TEST",
            "types": [
                "car_rental",
                "point_of_interest",
                "establishment"
            ],
            "user_ratings_total": 2,
            "vicinity": "Tangier",
            "opening_hours": null
        },
        {
            "business_status": "OPERATIONAL",
            "geometry": {
                "location": {
                    "lat": 35.73675,
                    "lng": -5.801467999999999
                },
                "viewport": {
                    "northeast": {
                        "lat": 35.7380969302915,
                        "lng": -5.800099419708498
                    },
                    "southwest": {
                        "lat": 35.73539896970851,
                        "lng": -5.802797380291502
                    }
                }
            },
            "icon": "https://maps.gstatic.com/mapfiles/place_api/icons/v1/png_71/generic_business-71.png",
            "name": "Agence Ranbouk",
            "photos": null,
            "place_id": "ChIJ-_MduKl4DA0RvAZqV0Lb6Es",
            "rating": 5.0,
            "reference": "ChIJ-_MduKl4DA0RvAZqV0Lb6Es",
            "scope": "MEANZ TEST",
            "types": [
                "car_rental",
                "point_of_interest",
                "establishment"
            ],
            "user_ratings_total": 1,
            "vicinity": "Avenue Al Qods, Tanger",
            "opening_hours": null
        },
        {
            "business_status": "OPERATIONAL",
            "geometry": {
                "location": {
                    "lat": 35.7571845,
                    "lng": -5.8133873
                },
                "viewport": {
                    "northeast": {
                        "lat": 35.7585087302915,
                        "lng": -5.812014319708497
                    },
                    "southwest": {
                        "lat": 35.7558107697085,
                        "lng": -5.814712280291502
                    }
                }
            },
            "icon": "https://maps.gstatic.com/mapfiles/place_api/icons/v1/png_71/generic_business-71.png",
            "name": "Agence Tarik tayssir car",
            "photos": [
                {
                    "height": 720,
                    "photo_reference": "ATtYBwKDCvGadlod-K7zPRbK_47QxBE2rxAPXBHk-uX91MXg2L-tf9pALBDqQDPCYCgjqVFOx9tMSmyXpvA9boiu8cldd5Gv34qb-binFkdNOMy4_YC0TOltb-41ZcEAPwBaKfcqgTkN5Hnv71GH9mBy1gx9EBtk7Xh_lHID5UtmdXy9Isb5",
                    "width": 1280
                }
            ],
            "place_id": "ChIJvRZ9HNiBCw0RYONlE-ydC1E",
            "rating": null,
            "reference": "ChIJvRZ9HNiBCw0RYONlE-ydC1E",
            "scope": "MEANZ TEST",
            "types": [
                "car_rental",
                "point_of_interest",
                "establishment"
            ],
            "user_ratings_total": null,
            "vicinity": "N°72, Tarik Tayssir Car S.A.R.L Bir Aharchourn, Rue 11, Tanger",
            "opening_hours": {
                "open_now": true
            }
        },
        {
            "business_status": "OPERATIONAL",
            "geometry": {
                "location": {
                    "lat": 35.7761755,
                    "lng": -5.801591800000001
                },
                "viewport": {
                    "northeast": {
                        "lat": 35.7775242302915,
                        "lng": -5.800246669708497
                    },
                    "southwest": {
                        "lat": 35.7748262697085,
                        "lng": -5.802944630291502
                    }
                }
            },
            "icon": "https://maps.gstatic.com/mapfiles/place_api/icons/v1/png_71/generic_business-71.png",
            "name": "Agence de location de voitures | Amine Vip Coches",
            "photos": [
                {
                    "height": 1280,
                    "photo_reference": "ATtYBwKL9TNxs0PzCLEg0KJX3RR9Vj70lIDdSG-eAJnGLhYydW9esIqad6MxyDs931ONLdCaBB7Io0uYZc3RvDJZQISAYzwO0Bj-NAvHKtb7P-O_MYiq1KDvcK3W94PCasazidHlCr6gYPlZKGlZEQbHJvgPzB8GRVSQnvo8jjp99BQulQbY",
                    "width": 960
                }
            ],
            "place_id": "ChIJG1uFOHN_DA0Rsred2TRsBmg",
            "rating": 5.0,
            "reference": "ChIJG1uFOHN_DA0Rsred2TRsBmg",
            "scope": "MEANZ TEST",
            "types": [
                "car_rental",
                "point_of_interest",
                "establishment"
            ],
            "user_ratings_total": 1,
            "vicinity": "résid. la Madrague, Av Mohammed V, Rue de Marseille, Tanger",
            "opening_hours": null
        },
        {
            "business_status": "OPERATIONAL",
            "geometry": {
                "location": {
                    "lat": 35.7260595,
                    "lng": -5.913801299999999
                },
                "viewport": {
                    "northeast": {
                        "lat": 35.72750483029149,
                        "lng": -5.912462069708497
                    },
                    "southwest": {
                        "lat": 35.7248068697085,
                        "lng": -5.915160030291502
                    }
                }
            },
            "icon": "https://maps.gstatic.com/mapfiles/place_api/icons/v1/png_71/generic_business-71.png",
            "name": "Agence diRENT",
            "photos": [
                {
                    "height": 720,
                    "photo_reference": "ATtYBwI1aIoDIlBo_aw15t-q_cpV_HsawDCYF7AwzDBHKF3fFMvigCTvOkcTj5wJkqjBmI7EpRJPcYjZESAyAsRtkFzZDLq9uvATyBtE_WB76VPwuE-SDRaUhN-2sr90sTtlcgZ5gI-7U0IjbOugpRpj7IjAsAcYshzNndI6z-s_MVF7tSHH",
                    "width": 1920
                }
            ],
            "place_id": "ChIJAQCyoWKICw0RmAiCEi08Ot4",
            "rating": 3.9,
            "reference": "ChIJAQCyoWKICw0RmAiCEi08Ot4",
            "scope": "MEANZ TEST",
            "types": [
                "car_rental",
                "point_of_interest",
                "establishment"
            ],
            "user_ratings_total": 51,
            "vicinity": "aéroport IBN BATTOUTA،, Tanger",
            "opening_hours": {
                "open_now": true
            }
        },
        {
            "business_status": "OPERATIONAL",
            "geometry": {
                "location": {
                    "lat": 35.7744057,
                    "lng": -5.7846687
                },
                "viewport": {
                    "northeast": {
                        "lat": 35.77587788029149,
                        "lng": -5.783295369708498
                    },
                    "southwest": {
                        "lat": 35.77317991970849,
                        "lng": -5.785993330291503
                    }
                }
            },
            "icon": "https://maps.gstatic.com/mapfiles/place_api/icons/v1/png_71/generic_business-71.png",
            "name": "Ahj's cars",
            "photos": [
                {
                    "height": 774,
                    "photo_reference": "ATtYBwJmg4NJepwCIfsxIJ4bXZvjAJ1SjGKrZy-eofxIJw66ChgEBk3nRKojnak-TZBeNmXOgN5Mnx9gmccIh8lhca5KJubzNl4r5gO0f0XcwiOs9MMSVdUat3vGLrwutat3Im5bseGNLktDi563BKoC9QqiWSifYiEHjDfKoefg4iQX4AOT",
                    "width": 1055
                }
            ],
            "place_id": "ChIJIQTTh_uBCw0RJbLn05ehptE",
            "rating": 4.5,
            "reference": "ChIJIQTTh_uBCw0RJbLn05ehptE",
            "scope": "MEANZ TEST",
            "types": [
                "car_rental",
                "point_of_interest",
                "establishment"
            ],
            "user_ratings_total": 2,
            "vicinity": "N°19, Mahaj mohamed 6 les jardins andalous RDC, Tanger",
            "opening_hours": {
                "open_now": true
            }
        },
        {
            "business_status": "OPERATIONAL",
            "geometry": {
                "location": {
                    "lat": 35.7795438,
                    "lng": -5.8052793
                },
                "viewport": {
                    "northeast": {
                        "lat": 35.78088038029149,
                        "lng": -5.803966569708496
                    },
                    "southwest": {
                        "lat": 35.77818241970849,
                        "lng": -5.806664530291501
                    }
                }
            },
            "icon": "https://maps.gstatic.com/mapfiles/place_api/icons/v1/png_71/generic_business-71.png",
            "name": "Ajamex car",
            "photos": [
                {
                    "height": 1155,
                    "photo_reference": "ATtYBwL0we5CWgEQUonOsVM7CRu8Ls5hzMc7nzuevAYxR1zODAngXGoZ3UhfUuTD0q1sXKCCL-mA0ApLlcfZrGnM-ek_jp2NJT4rgbHqNvZfwCjUEljIUwTEFVmP04ZnhJV9dd9mmM8Ch99CkPPP793Z22CW58XugeVjUrheJP-9qlb1DmFg",
                    "width": 1155
                }
            ],
            "place_id": "ChIJOwr3m6d_DA0Rozs5-MW3O94",
            "rating": null,
            "reference": "ChIJOwr3m6d_DA0Rozs5-MW3O94",
            "scope": "MEANZ TEST",
            "types": [
                "car_rental",
                "point_of_interest",
                "establishment"
            ],
            "user_ratings_total": null,
            "vicinity": "20 Rue Antaki, Tanger",
            "opening_hours": {
                "open_now": true
            }
        },
        {
            "business_status": "OPERATIONAL",
            "geometry": {
                "location": {
                    "lat": 35.7762105,
                    "lng": -5.808149299999998
                },
                "viewport": {
                    "northeast": {
                        "lat": 35.77753003029149,
                        "lng": -5.806814019708497
                    },
                    "southwest": {
                        "lat": 35.77483206970849,
                        "lng": -5.809511980291502
                    }
                }
            },
            "icon": "https://maps.gstatic.com/mapfiles/place_api/icons/v1/png_71/generic_business-71.png",
            "name": "Alkaficars tanger",
            "photos": null,
            "place_id": "ChIJEfkVIzx_DA0RoCpllL_fumU",
            "rating": null,
            "reference": "ChIJEfkVIzx_DA0RoCpllL_fumU",
            "scope": "MEANZ TEST",
            "types": [
                "car_rental",
                "point_of_interest",
                "establishment"
            ],
            "user_ratings_total": null,
            "vicinity": "52 Rue Lafayette, Tanger",
            "opening_hours": {
                "open_now": true
            }
        },
        {
            "business_status": "OPERATIONAL",
            "geometry": {
                "location": {
                    "lat": 35.77259809999999,
                    "lng": -5.800259899999999
                },
                "viewport": {
                    "northeast": {
                        "lat": 35.7739439302915,
                        "lng": -5.798909569708497
                    },
                    "southwest": {
                        "lat": 35.7712459697085,
                        "lng": -5.801607530291502
                    }
                }
            },
            "icon": "https://maps.gstatic.com/mapfiles/place_api/icons/v1/png_71/generic_business-71.png",
            "name": "Alsaraiticar",
            "photos": [
                {
                    "height": 1932,
                    "photo_reference": "ATtYBwKzONrVIJPra5XVVO4_qV5236ybkEXX5dWYarfHNFtqSasbwU2Q_Q0niCjk8MavVLVcI75Mpbv9fvb4t_LdSARCynYTMG8QZyBH5B3HyYN6cbZ-IHwg13PWJ4VZzABRqFACnT-SqQ4a_6TBCbhwu5_xWcNwoyELsQJDtc4VOrhBYViI",
                    "width": 3948
                }
            ],
            "place_id": "ChIJO_Nn-6aACw0RS3fZ9f4kh28",
            "rating": 4.0,
            "reference": "ChIJO_Nn-6aACw0RS3fZ9f4kh28",
            "scope": "MEANZ TEST",
            "types": [
                "car_rental",
                "point_of_interest",
                "establishment"
            ],
            "user_ratings_total": 3,
            "vicinity": "23 Sayed Qutb Street, طنجة",
            "opening_hours": {
                "open_now": true
            }
        },
        {
            "business_status": "OPERATIONAL",
            "geometry": {
                "location": {
                    "lat": 35.7652527,
                    "lng": -5.760298
                },
                "viewport": {
                    "northeast": {
                        "lat": 35.7666293302915,
                        "lng": -5.758967619708497
                    },
                    "southwest": {
                        "lat": 35.7639313697085,
                        "lng": -5.761665580291502
                    }
                }
            },
            "icon": "https://maps.gstatic.com/mapfiles/place_api/icons/v1/png_71/generic_business-71.png",
            "name": "Amabi car",
            "photos": null,
            "place_id": "ChIJ77shLLiBCw0RlmF4oZLYFV8",
            "rating": null,
            "reference": "ChIJ77shLLiBCw0RlmF4oZLYFV8",
            "scope": "MEANZ TEST",
            "types": [
                "car_rental",
                "point_of_interest",
                "establishment"
            ],
            "user_ratings_total": null,
            "vicinity": "Tanger",
            "opening_hours": null
        },
        {
            "business_status": "OPERATIONAL",
            "geometry": {
                "location": {
                    "lat": 35.77470899999999,
                    "lng": -5.811704
                },
                "viewport": {
                    "northeast": {
                        "lat": 35.7760616802915,
                        "lng": -5.810347369708498
                    },
                    "southwest": {
                        "lat": 35.7733637197085,
                        "lng": -5.813045330291502
                    }
                }
            },
            "icon": "https://maps.gstatic.com/mapfiles/place_api/icons/v1/png_71/generic_business-71.png",
            "name": "Amaligne Car",
            "photos": [
                {
                    "height": 604,
                    "photo_reference": "ATtYBwLDK8DDrZ2QqvqOceO0jBcfG2J0Po2ehaIeNyvtK-oJRnAwn8hg36mYaTKxPREIR2MYAGQ4ghI-J2nL9gOfQbHwEQ95_8zTsB0RW5S_NW9edg2R1x5wjh47i7DM27O6mPiD4I4yIza1tKkYEsdQZl9IahQnVljxQFo1U2AcD5hH21tE",
                    "width": 1080
                }
            ],
            "place_id": "ChIJb4uyGvWBCw0RIeuGnB6YGvQ",
            "rating": null,
            "reference": "ChIJb4uyGvWBCw0RIeuGnB6YGvQ",
            "scope": "MEANZ TEST",
            "types": [
                "car_rental",
                "point_of_interest",
                "establishment"
            ],
            "user_ratings_total": null,
            "vicinity": "6-10 Rue Al Kindy, Tanger",
            "opening_hours": null
        },
        {
            "business_status": "OPERATIONAL",
            "geometry": {
                "location": {
                    "lat": 35.77753489999999,
                    "lng": -5.805710599999999
                },
                "viewport": {
                    "northeast": {
                        "lat": 35.7788272302915,
                        "lng": -5.804392969708497
                    },
                    "southwest": {
                        "lat": 35.7761292697085,
                        "lng": -5.807090930291501
                    }
                }
            },
            "icon": "https://maps.gstatic.com/mapfiles/place_api/icons/v1/png_71/generic_business-71.png",
            "name": "Amine Car",
            "photos": [
                {
                    "height": 1511,
                    "photo_reference": "ATtYBwKB6JP4gs2lpoIwc3NiGeXYXcdEbXkRB1IQ8gfZWfXtRvoD_-rFg_I-fiCKLHLyjPpkXSELMIK5Y5DIT1L7BQHWKkNMcwuJ4se0zMYQZQkalSqoGka67nJQUyL4C9NOCHwGSFD5edRKgPoLo0trXFQBqa5JYGj05MTRS_5EOiFsH78",
                    "width": 2687
                }
            ],
            "place_id": "ChIJ_eRwrFd_DA0RSRlwBC3GMA8",
            "rating": 4.7,
            "reference": "ChIJ_eRwrFd_DA0RSRlwBC3GMA8",
            "scope": "MEANZ TEST",
            "types": [
                "car_rental",
                "point_of_interest",
                "establishment"
            ],
            "user_ratings_total": 48,
            "vicinity": "1er étage, 43, boulevard Mohamed V, n13, Tanger",
            "opening_hours": {
                "open_now": true
            }
        },
        {
            "business_status": "OPERATIONAL",
            "geometry": {
                "location": {
                    "lat": 35.7594651,
                    "lng": -5.833954299999998
                },
                "viewport": {
                    "northeast": {
                        "lat": 35.7607907302915,
                        "lng": -5.832624619708497
                    },
                    "southwest": {
                        "lat": 35.7580927697085,
                        "lng": -5.835322580291502
                    }
                }
            },
            "icon": "https://maps.gstatic.com/mapfiles/place_api/icons/v1/png_71/generic_business-71.png",
            "name": "Anas Car",
            "photos": null,
            "place_id": "ChIJByhEQkKHCw0RivFjbKJg6Wk",
            "rating": null,
            "reference": "ChIJByhEQkKHCw0RivFjbKJg6Wk",
            "scope": "MEANZ TEST",
            "types": [
                "car_rental",
                "point_of_interest",
                "establishment"
            ],
            "user_ratings_total": null,
            "vicinity": "Nr.13 43 Mohamed V, Tanger",
            "opening_hours": {
                "open_now": true
            }
        },
        {
            "business_status": "OPERATIONAL",
            "geometry": {
                "location": {
                    "lat": 35.739716,
                    "lng": -5.8393399
                },
                "viewport": {
                    "northeast": {
                        "lat": 35.74106328029149,
                        "lng": -5.837995069708498
                    },
                    "southwest": {
                        "lat": 35.73836531970849,
                        "lng": -5.840693030291502
                    }
                }
            },
            "icon": "https://maps.gstatic.com/mapfiles/place_api/icons/v1/png_71/generic_business-71.png",
            "name": "Anass Car",
            "photos": null,
            "place_id": "ChIJ-_8X8YOHCw0RpMM4bpOjvd4",
            "rating": null,
            "reference": "ChIJ-_8X8YOHCw0RpMM4bpOjvd4",
            "scope": "MEANZ TEST",
            "types": [
                "car_rental",
                "point_of_interest",
                "establishment"
            ],
            "user_ratings_total": null,
            "vicinity": "Ahlan, Tanger",
            "opening_hours": null
        },
        {
            "business_status": "OPERATIONAL",
            "geometry": {
                "location": {
                    "lat": 35.7699674,
                    "lng": -5.808834500000001
                },
                "viewport": {
                    "northeast": {
                        "lat": 35.7713016302915,
                        "lng": -5.807422869708499
                    },
                    "southwest": {
                        "lat": 35.7686036697085,
                        "lng": -5.810120830291504
                    }
                }
            },
            "icon": "https://maps.gstatic.com/mapfiles/place_api/icons/v1/png_71/generic_business-71.png",
            "name": "Aoutos nojoums",
            "photos": null,
            "place_id": "ChIJde49BXiBCw0R_qp8X7WGRg0",
            "rating": null,
            "reference": "ChIJde49BXiBCw0R_qp8X7WGRg0",
            "scope": "MEANZ TEST",
            "types": [
                "car_rental",
                "point_of_interest",
                "establishment"
            ],
            "user_ratings_total": null,
            "vicinity": "rue dalia n6 local, n2, Tanger",
            "opening_hours": null
        },
        {
            "business_status": "OPERATIONAL",
            "geometry": {
                "location": {
                    "lat": 35.77173380000001,
                    "lng": -5.799218500000001
                },
                "viewport": {
                    "northeast": {
                        "lat": 35.77304908029151,
                        "lng": -5.797844619708499
                    },
                    "southwest": {
                        "lat": 35.77035111970851,
                        "lng": -5.800542580291504
                    }
                }
            },
            "icon": "https://maps.gstatic.com/mapfiles/place_api/icons/v1/png_71/generic_business-71.png",
            "name": "Automo-Car",
            "photos": [
                {
                    "height": 616,
                    "photo_reference": "ATtYBwLyV89oGk9a96AKKhGiO56VRTe5oHJBPwnjyGQ-oiLflCqk9xBQObFhU9VeBFvsXQBa8CthFtqcC_lPoPHIdej9frOxzxPdqv0SBBT7S_nhvP7cMxYjvxIZ4WlCwVyWF_Xma4-tm21wTDeA9sGE34WiQqCEsPr2M5vz2bZ8Bz6CtCi9",
                    "width": 623
                }
            ],
            "place_id": "ChIJB6K1x6aACw0RZB0AktHyuas",
            "rating": 5.0,
            "reference": "ChIJB6K1x6aACw0RZB0AktHyuas",
            "scope": "MEANZ TEST",
            "types": [
                "car_rental",
                "point_of_interest",
                "establishment"
            ],
            "user_ratings_total": 1,
            "vicinity": "Tangier",
            "opening_hours": {
                "open_now": true
            }
        },
        {
            "business_status": "OPERATIONAL",
            "geometry": {
                "location": {
                    "lat": 35.77984049999999,
                    "lng": -5.8049195
                },
                "viewport": {
                    "northeast": {
                        "lat": 35.7811946302915,
                        "lng": -5.803566619708498
                    },
                    "southwest": {
                        "lat": 35.7784966697085,
                        "lng": -5.806264580291502
                    }
                }
            },
            "icon": "https://maps.gstatic.com/mapfiles/place_api/icons/v1/png_71/generic_business-71.png",
            "name": "Aviso car",
            "photos": [
                {
                    "height": 720,
                    "photo_reference": "ATtYBwLspTEHJHwH0yeuaqNFcoPtI7X_mq-VyWRwNfPm6_ZDMcC5Kr6FHvhMYvD-fzbGMBrdU26t55BLYLCuRf8UNJRW8uSuqm_yHJuI3j2IbGlYYY4VBERZscwEhcdVI42tsNxdAsKMp8Ibe1MznQF5AJnxdQz2kFTcorjk9ZwJcgQHp-65",
                    "width": 1280
                }
            ],
            "place_id": "ChIJqTnlA1Z_DA0RygxJGO5_73s",
            "rating": 5.0,
            "reference": "ChIJqTnlA1Z_DA0RygxJGO5_73s",
            "scope": "MEANZ TEST",
            "types": [
                "car_rental",
                "point_of_interest",
                "establishment"
            ],
            "user_ratings_total": 1,
            "vicinity": "la plage magasine 2, Rue Tarik, Tanger",
            "opening_hours": {
                "open_now": true
            }
        },
        {
            "business_status": "OPERATIONAL",
            "geometry": {
                "location": {
                    "lat": 35.7535221,
                    "lng": -5.8072843
                },
                "viewport": {
                    "northeast": {
                        "lat": 35.75494608029149,
                        "lng": -5.805931919708498
                    },
                    "southwest": {
                        "lat": 35.7522481197085,
                        "lng": -5.808629880291503
                    }
                }
            },
            "icon": "https://maps.gstatic.com/mapfiles/place_api/icons/v1/png_71/generic_business-71.png",
            "name": "BNI HADIFA CAR",
            "photos": [
                {
                    "height": 5312,
                    "photo_reference": "ATtYBwL41R9Aapi8Ztz7eViu6ETbHwYVp02vCvIL1_CJnEKe-VIwZzJ-lKOzPcznfRePdP7ZXPqjFTd01r0sVrUCMrqvfhAVSoX3rtawrrmGaooVX5jp5P69I4oVSsCvmZ47geQMHfZrRgpk_FgkxSc-PC3390SD6CtAh-XhOhCQOnHA-SeP",
                    "width": 2988
                }
            ],
            "place_id": "ChIJWWOmdT6BCw0RZAj1XvpppTI",
            "rating": null,
            "reference": "ChIJWWOmdT6BCw0RZAj1XvpppTI",
            "scope": "MEANZ TEST",
            "types": [
                "car_rental",
                "point_of_interest",
                "establishment"
            ],
            "user_ratings_total": null,
            "vicinity": "Fin, Rue Fatima Zahra, Tanger",
            "opening_hours": null
        },
        {
            "business_status": "OPERATIONAL",
            "geometry": {
                "location": {
                    "lat": 35.77429,
                    "lng": -5.78458
                },
                "viewport": {
                    "northeast": {
                        "lat": 35.7758129302915,
                        "lng": -5.783196619708499
                    },
                    "southwest": {
                        "lat": 35.7731149697085,
                        "lng": -5.785894580291504
                    }
                }
            },
            "icon": "https://maps.gstatic.com/mapfiles/place_api/icons/v1/png_71/generic_business-71.png",
            "name": "Bades Car",
            "photos": [
                {
                    "height": 2448,
                    "photo_reference": "ATtYBwLtcuWlJ2msaPHTHsX5cnPVpzX8YHcCtGflar5RUxkcbT1VNVfi0tdu2SDdQi1w25xKnVuiS-SBxXvbjs-KcJbzB8wkwC52mBtcim6VpaUByxuANgMP3PCYsTp-xY5wc1tOH9OzvM2xg-pDUn-eUnILHh0rPn7KnF1NCDXaNbzWZCEX",
                    "width": 3264
                }
            ],
            "place_id": "ChIJg-WyGp2ACw0RzNHmap1v6mk",
            "rating": 4.7,
            "reference": "ChIJg-WyGp2ACw0RzNHmap1v6mk",
            "scope": "MEANZ TEST",
            "types": [
                "car_rental",
                "point_of_interest",
                "establishment"
            ],
            "user_ratings_total": 19,
            "vicinity": "BV. MOHAMMED VI., COMPLEXE JARDIN ANDALOUS N°18 A, Tanger",
            "opening_hours": {
                "open_now": true
            }
        },
        {
            "business_status": "OPERATIONAL",
            "geometry": {
                "location": {
                    "lat": 35.7797139,
                    "lng": -5.818029699999999
                },
                "viewport": {
                    "northeast": {
                        "lat": 35.78104708029149,
                        "lng": -5.816643769708498
                    },
                    "southwest": {
                        "lat": 35.77834911970849,
                        "lng": -5.819341730291502
                    }
                }
            },
            "icon": "https://maps.gstatic.com/mapfiles/place_api/icons/v1/png_71/generic_business-71.png",
            "name": "Bcn car",
            "photos": [
                {
                    "height": 674,
                    "photo_reference": "ATtYBwI-ViZDU-cu7lVNHhE2k1hFSmOH-OCVzzzkyWKCeOwO2ZDGNiChceDQ2mKBQ77qEihJA9Zuh2RjrLdiCLjNkvkOGlQ-yX7IrgXYn5g-eXDgEKXXZ7ttbosPKBr7_GKD6ITVuTfhDjBMOXKJL0udCA3Ht7xsB2-KefjT7eXKvjC-InnG",
                    "width": 1080
                }
            ],
            "place_id": "ChIJWcqMnSp5DA0RQm0vpUgS10k",
            "rating": 4.6,
            "reference": "ChIJWcqMnSp5DA0RQm0vpUgS10k",
            "scope": "MEANZ TEST",
            "types": [
                "car_rental",
                "point_of_interest",
                "establishment"
            ],
            "user_ratings_total": 11,
            "vicinity": "15 Rue d'Angleterre, Tanger",
            "opening_hours": null
        },
        {
            "business_status": "OPERATIONAL",
            "geometry": {
                "location": {
                    "lat": 35.756925,
                    "lng": -5.800287699999999
                },
                "viewport": {
                    "northeast": {
                        "lat": 35.7582709302915,
                        "lng": -5.798951669708497
                    },
                    "southwest": {
                        "lat": 35.7555729697085,
                        "lng": -5.801649630291502
                    }
                }
            },
            "icon": "https://maps.gstatic.com/mapfiles/place_api/icons/v1/png_71/generic_business-71.png",
            "name": "Besatis location de voitures",
            "photos": null,
            "place_id": "ChIJV6xtczGHCw0RawvtuceylSA",
            "rating": 1.0,
            "reference": "ChIJV6xtczGHCw0RawvtuceylSA",
            "scope": "MEANZ TEST",
            "types": [
                "car_rental",
                "point_of_interest",
                "establishment"
            ],
            "user_ratings_total": 1,
            "vicinity": "Belle vue rue 75 n°41, Tanger",
            "opening_hours": {
                "open_now": true
            }
        },
        {
            "business_status": "OPERATIONAL",
            "geometry": {
                "location": {
                    "lat": 35.75643119999999,
                    "lng": -5.835769699999999
                },
                "viewport": {
                    "northeast": {
                        "lat": 35.7577416802915,
                        "lng": -5.834457769708498
                    },
                    "southwest": {
                        "lat": 35.7550437197085,
                        "lng": -5.837155730291502
                    }
                }
            },
            "icon": "https://maps.gstatic.com/mapfiles/place_api/icons/v1/png_71/generic_business-71.png",
            "name": "Bestore car",
            "photos": [
                {
                    "height": 1000,
                    "photo_reference": "ATtYBwLjO97IuFmwZNcoc1ors2POmlWwMEjnheNd_13RbvGtsyCCVd_ghisgTbkA6yzDgvOoR5oSlNOrhs_7IssTzE1JWG7QhZRjTVl2h8PuvLNZaAzwsZb_Ud5QpbA3WO3M5ZkT6ErQnS0YjDfF38NisMwpqr0qR9LbHZUf3JO3KUd4AWCT",
                    "width": 486
                }
            ],
            "place_id": "ChIJF-4ksCGHCw0R3B_GfQZ8UFI",
            "rating": 5.0,
            "reference": "ChIJF-4ksCGHCw0R3B_GfQZ8UFI",
            "scope": "MEANZ TEST",
            "types": [
                "car_rental",
                "point_of_interest",
                "establishment"
            ],
            "user_ratings_total": 6,
            "vicinity": "طنجة",
            "opening_hours": {
                "open_now": true
            }
        },
        {
            "business_status": "OPERATIONAL",
            "geometry": {
                "location": {
                    "lat": 35.77629040000001,
                    "lng": -5.802332899999999
                },
                "viewport": {
                    "northeast": {
                        "lat": 35.7776077802915,
                        "lng": -5.800999569708496
                    },
                    "southwest": {
                        "lat": 35.7749098197085,
                        "lng": -5.803697530291501
                    }
                }
            },
            "icon": "https://maps.gstatic.com/mapfiles/place_api/icons/v1/png_71/generic_business-71.png",
            "name": "Big B",
            "photos": null,
            "place_id": "ChIJ57A4bVh_DA0ROTxQPePEMUs",
            "rating": 1.0,
            "reference": "ChIJ57A4bVh_DA0ROTxQPePEMUs",
            "scope": "MEANZ TEST",
            "types": [
                "car_rental",
                "point_of_interest",
                "establishment"
            ],
            "user_ratings_total": 3,
            "vicinity": "Av. Youssef Ibn Tachfine, Résidence Soumaya Kaissariat la Méditerranée N 9 90000 Maroc, Tanger",
            "opening_hours": {
                "open_now": true
            }
        },
        {
            "business_status": "OPERATIONAL",
            "geometry": {
                "location": {
                    "lat": 35.7752586,
                    "lng": -5.8127754
                },
                "viewport": {
                    "northeast": {
                        "lat": 35.7766447302915,
                        "lng": -5.811423519708497
                    },
                    "southwest": {
                        "lat": 35.7739467697085,
                        "lng": -5.814121480291502
                    }
                }
            },
            "icon": "https://maps.gstatic.com/mapfiles/place_api/icons/v1/png_71/generic_business-71.png",
            "name": "Black wood car",
            "photos": null,
            "place_id": "ChIJLzAHZat_DA0RqZNYwC1_fLI",
            "rating": null,
            "reference": "ChIJLzAHZat_DA0RqZNYwC1_fLI",
            "scope": "MEANZ TEST",
            "types": [
                "car_rental",
                "point_of_interest",
                "establishment"
            ],
            "user_ratings_total": null,
            "vicinity": "Rue Ibn Toumert, Tanger",
            "opening_hours": {
                "open_now": true
            }
        },
        {
            "business_status": "OPERATIONAL",
            "geometry": {
                "location": {
                    "lat": 35.75999129999999,
                    "lng": -5.818618300000001
                },
                "viewport": {
                    "northeast": {
                        "lat": 35.7613447302915,
                        "lng": -5.817275719708498
                    },
                    "southwest": {
                        "lat": 35.7586467697085,
                        "lng": -5.819973680291502
                    }
                }
            },
            "icon": "https://maps.gstatic.com/mapfiles/place_api/icons/v1/png_71/generic_business-71.png",
            "name": "Bouhaja car",
            "photos": [
                {
                    "height": 4248,
                    "photo_reference": "ATtYBwLA79HPoEZzYAwofegGQzpnr1-UKBCUHyWiO31Ua6kec6bAkQuehFcAWqPoFuLCeHwAb93G3cESVQkLyPBFzqd13Oqq1_RwSAqbF8-UwiPEWb45BuoyUWXuzkGlcizqYTmdWnKCBRAlznvqG7gqUE57FrHZgJlBtTJSPtunHvt8nqiz",
                    "width": 5664
                }
            ],
            "place_id": "ChIJcX7M_4aHCw0RPFyeGdFG93w",
            "rating": 2.4,
            "reference": "ChIJcX7M_4aHCw0RPFyeGdFG93w",
            "scope": "MEANZ TEST",
            "types": [
                "car_rental",
                "point_of_interest",
                "establishment"
            ],
            "user_ratings_total": 5,
            "vicinity": "n 38 Quartier alboughaz, Rue Martyr Rahal Ben Ahmed, Tanger",
            "opening_hours": {
                "open_now": true
            }
        },
        {
            "business_status": "OPERATIONAL",
            "geometry": {
                "location": {
                    "lat": 35.7261186,
                    "lng": -5.9134372
                },
                "viewport": {
                    "northeast": {
                        "lat": 35.72750948029149,
                        "lng": -5.912089119708498
                    },
                    "southwest": {
                        "lat": 35.7248115197085,
                        "lng": -5.914787080291503
                    }
                }
            },
            "icon": "https://maps.gstatic.com/mapfiles/place_api/icons/v1/png_71/generic_business-71.png",
            "name": "Bouhaja car",
            "photos": [
                {
                    "height": 1280,
                    "photo_reference": "ATtYBwJOxnYQzxawzsW5Z6MwcUr-ycXI7iYMLH8mpbBt20RPwe3gGjADcyNOsFa4O73o6ere33tRbq6R64iUyPwyUQusHWxJjWhDt_hwXuQPLM9LS6jmivboAxkIlcAQ-i_x9Lcj3K84IZV8j3fkuyEIOEmTVGFNRN9P_kWpRJotY7PKKjT4",
                    "width": 720
                }
            ],
            "place_id": "ChIJJwJNa8qJCw0RpEJWefrTWWI",
            "rating": null,
            "reference": "ChIJJwJNa8qJCw0RpEJWefrTWWI",
            "scope": "MEANZ TEST",
            "types": [
                "car_rental",
                "point_of_interest",
                "establishment"
            ],
            "user_ratings_total": null,
            "vicinity": "Tangier",
            "opening_hours": null
        },
        {
            "business_status": "OPERATIONAL",
            "geometry": {
                "location": {
                    "lat": 35.7753459,
                    "lng": -5.8016137
                },
                "viewport": {
                    "northeast": {
                        "lat": 35.7766549302915,
                        "lng": -5.800256669708499
                    },
                    "southwest": {
                        "lat": 35.77395696970851,
                        "lng": -5.802954630291503
                    }
                }
            },
            "icon": "https://maps.gstatic.com/mapfiles/place_api/icons/v1/png_71/generic_business-71.png",
            "name": "Bousfia car",
            "photos": [
                {
                    "height": 3456,
                    "photo_reference": "ATtYBwKEHTu7pLs3HWviy5vLa6UKD3dooM3fErfO-tZwOTfjdo9qI4Yjg_gfz-dnoq1ankEz5c5qQ_TAX4MK615Lbf_zpxaLVBknyPcNKDjly-7oJFDEKR0tTLXZp7cfMptIheWSI55fvbF7cTI2b8gHiHOh2HH41WgAAkrePBcBgz3TgOW7",
                    "width": 4608
                }
            ],
            "place_id": "ChIJ75LXoXF_DA0RKy9iRC6ZNVI",
            "rating": 5.0,
            "reference": "ChIJ75LXoXF_DA0RKy9iRC6ZNVI",
            "scope": "MEANZ TEST",
            "types": [
                "car_rental",
                "point_of_interest",
                "establishment"
            ],
            "user_ratings_total": 5,
            "vicinity": "le kaisariya andalous, Bd. Mohamed 5 - Rue jamal eddine al afghani, n21, Tanger",
            "opening_hours": {
                "open_now": true
            }
        },
        {
            "business_status": "OPERATIONAL",
            "geometry": {
                "location": {
                    "lat": 35.7803385,
                    "lng": -5.8097747
                },
                "viewport": {
                    "northeast": {
                        "lat": 35.7815949802915,
                        "lng": -5.808400169708498
                    },
                    "southwest": {
                        "lat": 35.7788970197085,
                        "lng": -5.811098130291502
                    }
                }
            },
            "icon": "https://maps.gstatic.com/mapfiles/place_api/icons/v1/png_71/generic_business-71.png",
            "name": "Budget Rent.",
            "photos": [
                {
                    "height": 3264,
                    "photo_reference": "ATtYBwK-5dJHmoIdtb1o2wOkLr_shXZW23_rCCo9iRrMrKazpLk8zSZbrxccr_KqOzzNqKvc0hcz6PK6Rr1QTB-ytqCLAo3fuZlQScDLgW8jGwAwOXHtdRA5rU57jghutCYdygbjbZONPDJuRYSnF-Cjni-44IrqjAQpSVALJ_WmmMZbehZ6",
                    "width": 1840
                }
            ],
            "place_id": "ChIJ0ZBf0pF_DA0RoCKZdBx3X9A",
            "rating": 2.1,
            "reference": "ChIJ0ZBf0pF_DA0RoCKZdBx3X9A",
            "scope": "MEANZ TEST",
            "types": [
                "car_rental",
                "point_of_interest",
                "establishment"
            ],
            "user_ratings_total": 8,
            "vicinity": "07 Avenue Prince Moulay Abdellah, Tanger",
            "opening_hours": {
                "open_now": false
            }
        },
        {
            "business_status": "OPERATIONAL",
            "geometry": {
                "location": {
                    "lat": 35.772519,
                    "lng": -5.8166422
                },
                "viewport": {
                    "northeast": {
                        "lat": 35.7738607302915,
                        "lng": -5.815262019708498
                    },
                    "southwest": {
                        "lat": 35.7711627697085,
                        "lng": -5.817959980291502
                    }
                }
            },
            "icon": "https://maps.gstatic.com/mapfiles/place_api/icons/v1/png_71/generic_business-71.png",
            "name": "Buisness auto sarl",
            "photos": [
                {
                    "height": 534,
                    "photo_reference": "ATtYBwI29UgXgMVCEHo93R4ZAqT7d1uPtAgOQ_9BqgNBl_JPFHYPqMSbuajWN2VaZLs6B0BADAVHg1z2UIjmTkUF-YG0lczdM39JiC9AQh3a1uXeS9ZDlkLRlBSOPB2zoRj5VylBeaGjZOAgPFVtdOZgjZzgfVTifVx3SBvieVIRiWk9zhw",
                    "width": 800
                }
            ],
            "place_id": "ChIJPQlgdVyHCw0R8CE8fsPlhP4",
            "rating": 5.0,
            "reference": "ChIJPQlgdVyHCw0R8CE8fsPlhP4",
            "scope": "MEANZ TEST",
            "types": [
                "car_rental",
                "point_of_interest",
                "establishment"
            ],
            "user_ratings_total": 1,
            "vicinity": "Rue Gutemberg, Tanger",
            "opening_hours": {
                "open_now": true
            }
        },
        {
            "business_status": "OPERATIONAL",
            "geometry": {
                "location": {
                    "lat": 35.75617769999999,
                    "lng": -5.8266756
                },
                "viewport": {
                    "northeast": {
                        "lat": 35.7575253302915,
                        "lng": -5.825341369708497
                    },
                    "southwest": {
                        "lat": 35.7548273697085,
                        "lng": -5.828039330291502
                    }
                }
            },
            "icon": "https://maps.gstatic.com/mapfiles/place_api/icons/v1/png_71/generic_business-71.png",
            "name": "CENTRAL CAR",
            "photos": [
                {
                    "height": 1920,
                    "photo_reference": "ATtYBwL0KaNGly8dpPKWx5qHm9ujvrPD8G1jeMv9dZAOKMmWivxbgJwFf-zW0DHGoET3_mNPywpGfvkQCrjtxPJYSEKqN85Ayk0PkStaevXJEpdAmh_7MUaxEzX6P9HB1xigx2CAnCcu6turVzfwFedc4LO2mETsh3UPL3WOD0UBKyl0EA_C",
                    "width": 1054
                }
            ],
            "place_id": "ChIJPSLvHb2HCw0RZSlWp-QD2EI",
            "rating": null,
            "reference": "ChIJPSLvHb2HCw0RZSlWp-QD2EI",
            "scope": "MEANZ TEST",
            "types": [
                "car_rental",
                "point_of_interest",
                "establishment"
            ],
            "user_ratings_total": null,
            "vicinity": "Rue 37, Tanger",
            "opening_hours": {
                "open_now": true
            }
        },
        {
            "business_status": "OPERATIONAL",
            "geometry": {
                "location": {
                    "lat": 35.7645789,
                    "lng": -5.853273000000001
                },
                "viewport": {
                    "northeast": {
                        "lat": 35.7658969802915,
                        "lng": -5.851904969708498
                    },
                    "southwest": {
                        "lat": 35.7631990197085,
                        "lng": -5.854602930291502
                    }
                }
            },
            "icon": "https://maps.gstatic.com/mapfiles/place_api/icons/v1/png_71/generic_business-71.png",
            "name": "CHAMALIA CAR",
            "photos": null,
            "place_id": "ChIJ4XxRfb2HCw0Rv_c40XJdc1M",
            "rating": null,
            "reference": "ChIJ4XxRfb2HCw0Rv_c40XJdc1M",
            "scope": "MEANZ TEST",
            "types": [
                "car_rental",
                "point_of_interest",
                "establishment"
            ],
            "user_ratings_total": null,
            "vicinity": "Unnamed Road, Tanger",
            "opening_hours": {
                "open_now": true
            }
        },
        {
            "business_status": "OPERATIONAL",
            "geometry": {
                "location": {
                    "lat": 35.741754,
                    "lng": -5.7971542
                },
                "viewport": {
                    "northeast": {
                        "lat": 35.7430993802915,
                        "lng": -5.795790819708498
                    },
                    "southwest": {
                        "lat": 35.7404014197085,
                        "lng": -5.798488780291502
                    }
                }
            },
            "icon": "https://maps.gstatic.com/mapfiles/place_api/icons/v1/png_71/generic_business-71.png",
            "name": "CHM rent car",
            "photos": null,
            "place_id": "ChIJH6UvCRCBCw0Rj2IuEtCK74I",
            "rating": null,
            "reference": "ChIJH6UvCRCBCw0Rj2IuEtCK74I",
            "scope": "MEANZ TEST",
            "types": [
                "car_rental",
                "point_of_interest",
                "establishment"
            ],
            "user_ratings_total": null,
            "vicinity": "Quartier Majd aouam, Tanger",
            "opening_hours": null
        },
        {
            "business_status": "OPERATIONAL",
            "geometry": {
                "location": {
                    "lat": 35.7556762,
                    "lng": -5.825800499999999
                },
                "viewport": {
                    "northeast": {
                        "lat": 35.7570390802915,
                        "lng": -5.824415769708498
                    },
                    "southwest": {
                        "lat": 35.7543411197085,
                        "lng": -5.827113730291503
                    }
                }
            },
            "icon": "https://maps.gstatic.com/mapfiles/place_api/icons/v1/png_71/generic_business-71.png",
            "name": "CLEMENCE CAR S.A.R.L.",
            "photos": null,
            "place_id": "ChIJdRBWMUaHCw0RzwROvQ4oPXo",
            "rating": 5.0,
            "reference": "ChIJdRBWMUaHCw0RzwROvQ4oPXo",
            "scope": "MEANZ TEST",
            "types": [
                "car_rental",
                "point_of_interest",
                "establishment"
            ],
            "user_ratings_total": 2,
            "vicinity": "1 N°17, Avenue Moulay El Arbi El Alaoui, Tangier",
            "opening_hours": {
                "open_now": true
            }
        },
        {
            "business_status": "OPERATIONAL",
            "geometry": {
                "location": {
                    "lat": 35.78217,
                    "lng": -5.807892999999999
                },
                "viewport": {
                    "northeast": {
                        "lat": 35.7835950302915,
                        "lng": -5.806322369708497
                    },
                    "southwest": {
                        "lat": 35.7808970697085,
                        "lng": -5.809020330291502
                    }
                }
            },
            "icon": "https://maps.gstatic.com/mapfiles/place_api/icons/v1/png_71/generic_business-71.png",
            "name": "CLUB RIYADO AUTO",
            "photos": [
                {
                    "height": 2048,
                    "photo_reference": "ATtYBwJwsvX9KBPIFwfG5nprpoPmwHMwLrK7CWb5Jgp09GpHkHcBM1b5klqcHvTIGTGvG1tVfxFSWQlCgLaTnEwntHiQBfCySv_UQT5JBel5nURowf9tLgQdSuv3XAvBbxYOi2-cdRXzT7Qx7GmqVOTitUvT-UD7ZDcE2loPIdIpLmzE2LkJ",
                    "width": 1152
                }
            ],
            "place_id": "ChIJByRqL1F_DA0RXFSxRDlIB2U",
            "rating": 5.0,
            "reference": "ChIJByRqL1F_DA0RXFSxRDlIB2U",
            "scope": "MEANZ TEST",
            "types": [
                "car_rental",
                "null",
                "point_of_interest",
                "establishment"
            ],
            "user_ratings_total": 2,
            "vicinity": "NO 96 Boulevard Mohamed VI, Tanger",
            "opening_hours": {
                "open_now": true
            }
        },
        {
            "business_status": "OPERATIONAL",
            "geometry": {
                "location": {
                    "lat": 35.7725419,
                    "lng": -5.797689499999999
                },
                "viewport": {
                    "northeast": {
                        "lat": 35.77385178029149,
                        "lng": -5.796359569708497
                    },
                    "southwest": {
                        "lat": 35.7711538197085,
                        "lng": -5.799057530291502
                    }
                }
            },
            "icon": "https://maps.gstatic.com/mapfiles/place_api/icons/v1/png_71/generic_business-71.png",
            "name": "COSTA DEL SOL AUTO",
            "photos": [
                {
                    "height": 421,
                    "photo_reference": "ATtYBwJljIR9XoAUydoUDiWw-YSstNruLeJ8V80-yc2pmDCcdMgqbmJa4aliGLBqFj5Fs9yMTP6JCQpzV9UP6oYq-6dJ2EKqzQ3hN_Hyu1MBcbUqWXJEhQKFK6WsF1RO7PIcZwEoGV0bFoI2x_SDXEfm_0oTaWtoZqgQIPIYam9Z5pnvMDv8",
                    "width": 751
                }
            ],
            "place_id": "ChIJZWkkrZiBCw0RjjidzWVyX8g",
            "rating": 5.0,
            "reference": "ChIJZWkkrZiBCw0RjjidzWVyX8g",
            "scope": "MEANZ TEST",
            "types": [
                "car_rental",
                "point_of_interest",
                "establishment"
            ],
            "user_ratings_total": 2,
            "vicinity": "Angel Yasmine Imm Omar RDC N°3 Place Mozart, Tanger",
            "opening_hours": {
                "open_now": true
            }
        },
        {
            "business_status": "OPERATIONAL",
            "geometry": {
                "location": {
                    "lat": 35.7592159,
                    "lng": -5.821425199999999
                },
                "viewport": {
                    "northeast": {
                        "lat": 35.7605139302915,
                        "lng": -5.820214869708497
                    },
                    "southwest": {
                        "lat": 35.7578159697085,
                        "lng": -5.822912830291502
                    }
                }
            },
            "icon": "https://maps.gstatic.com/mapfiles/place_api/icons/v1/png_71/generic_business-71.png",
            "name": "Chamalia car",
            "photos": [
                {
                    "height": 350,
                    "photo_reference": "ATtYBwIo4NZuftYPIQl2mtg5jh7wnqQnsxdadInm7-VZO3yDkj35gB7wqfMQXXVc_hQhQFGAb8ra_6_t5Xvua98ME_AXhlbZccL1k-aG53iIUNP1oKyzXu57uswD3Z-AYcpFLj_RHvJj2OqTLwgFkTnlKGAkvi3W0b52l0ZJ_jHZl6gYNbQu",
                    "width": 719
                }
            ],
            "place_id": "ChIJBztzuD-HCw0RVt-8aeg86Ao",
            "rating": 5.0,
            "reference": "ChIJBztzuD-HCw0RVt-8aeg86Ao",
            "scope": "MEANZ TEST",
            "types": [
                "car_rental",
                "point_of_interest",
                "establishment"
            ],
            "user_ratings_total": 1,
            "vicinity": "Florencia Street, Tangier",
            "opening_hours": {
                "open_now": true
            }
        },
        {
            "business_status": "OPERATIONAL",
            "geometry": {
                "location": {
                    "lat": 35.76077799999999,
                    "lng": -5.787777
                },
                "viewport": {
                    "northeast": {
                        "lat": 35.7621240302915,
                        "lng": -5.786442419708498
                    },
                    "southwest": {
                        "lat": 35.7594260697085,
                        "lng": -5.789140380291503
                    }
                }
            },
            "icon": "https://maps.gstatic.com/mapfiles/place_api/icons/v1/png_71/generic_business-71.png",
            "name": "Club Sahsah Car S.A.R.L.",
            "photos": null,
            "place_id": "ChIJZdH5TJGACw0RdRi9RHHF5a8",
            "rating": 2.8,
            "reference": "ChIJZdH5TJGACw0RdRi9RHHF5a8",
            "scope": "MEANZ TEST",
            "types": [
                "car_rental",
                "point_of_interest",
                "establishment"
            ],
            "user_ratings_total": 5,
            "vicinity": "26, Av. Principale , Hay Sania, Birchifa, Tanger",
            "opening_hours": null
        },
        {
            "business_status": "OPERATIONAL",
            "geometry": {
                "location": {
                    "lat": 35.72661490000001,
                    "lng": -5.9125699
                },
                "viewport": {
                    "northeast": {
                        "lat": 35.7279782802915,
                        "lng": -5.911222769708498
                    },
                    "southwest": {
                        "lat": 35.7252803197085,
                        "lng": -5.913920730291503
                    }
                }
            },
            "icon": "https://maps.gstatic.com/mapfiles/place_api/icons/v1/png_71/generic_business-71.png",
            "name": "DAY TO DAY Rent a Car Tangier Location de Voiture Tanger",
            "photos": [
                {
                    "height": 720,
                    "photo_reference": "ATtYBwKLiKVr_MM6gFZrxub8CiSxDXU3B36dadIiXYkNF4w-h4MXzsSQB_XozsOiB1ubGRCOcdw_eeJszroBrwro8ToD2QB9ZSfRTMt8mYONauAL_PooUcOu8WV16KfzHUoYF0w-XqUiTsJY-O4HHT1gzkbWtQWr1x4sGNZdsRqWgY3tfVWI",
                    "width": 960
                }
            ],
            "place_id": "ChIJIaJMowCBCw0RjpavRcFr2Qk",
            "rating": 4.7,
            "reference": "ChIJIaJMowCBCw0RjpavRcFr2Qk",
            "scope": "MEANZ TEST",
            "types": [
                "car_rental",
                "point_of_interest",
                "establishment"
            ],
            "user_ratings_total": 45,
            "vicinity": "n 3, Location de Voitures Tanger aéroport Tanger bureau n 3 Tangier 90000, Tanger",
            "opening_hours": {
                "open_now": true
            }
        },
        {
            "business_status": "OPERATIONAL",
            "geometry": {
                "location": {
                    "lat": 35.7710087,
                    "lng": -5.830950199999999
                },
                "viewport": {
                    "northeast": {
                        "lat": 35.7723524802915,
                        "lng": -5.829593319708498
                    },
                    "southwest": {
                        "lat": 35.76965451970851,
                        "lng": -5.832291280291503
                    }
                }
            },
            "icon": "https://maps.gstatic.com/mapfiles/place_api/icons/v1/png_71/shopping-71.png",
            "name": "DERKAOUI AUTOMOBILE - Vente Achat et LOCATION",
            "photos": null,
            "place_id": "ChIJYSIB216HCw0RRYn5hg2tGNk",
            "rating": 4.0,
            "reference": "ChIJYSIB216HCw0RRYn5hg2tGNk",
            "scope": "MEANZ TEST",
            "types": [
                "null",
                "car_rental",
                "point_of_interest",
                "null",
                "establishment"
            ],
            "user_ratings_total": 31,
            "vicinity": "Avenue Moulay Rachid, Tanger",
            "opening_hours": {
                "open_now": true
            }
        },
        {
            "business_status": "OPERATIONAL",
            "geometry": {
                "location": {
                    "lat": 35.76637350000001,
                    "lng": -5.8067784
                },
                "viewport": {
                    "northeast": {
                        "lat": 35.7677617302915,
                        "lng": -5.805361819708497
                    },
                    "southwest": {
                        "lat": 35.7650637697085,
                        "lng": -5.808059780291502
                    }
                }
            },
            "icon": "https://maps.gstatic.com/mapfiles/place_api/icons/v1/png_71/generic_business-71.png",
            "name": "DOSABDOS CAR",
            "photos": [
                {
                    "height": 325,
                    "photo_reference": "ATtYBwIhL6j3uPkGZNMjlQ4CbwP6Q5jY7fIGNlyVMfMCeSDPp2m2urjfWpP97zeqOHjf6KPGlnTUR2gCDWfOat0IB-mnycegYo9bb3RMwIJoyUVy-YKxa4lioH1n0g0TTxruzDX8MSkO1017oRpjDVs02bmvovoqWTuHXjXgCOp1DhkaTF_4",
                    "width": 590
                }
            ],
            "place_id": "ChIJl0bq00-BCw0RiYdnYWL7LK4",
            "rating": null,
            "reference": "ChIJl0bq00-BCw0RiYdnYWL7LK4",
            "scope": "MEANZ TEST",
            "types": [
                "car_rental",
                "point_of_interest",
                "establishment"
            ],
            "user_ratings_total": null,
            "vicinity": "RUE TAROUDANT COMPLEXE ABRAJ TANJA, BLOC 6 BUREAU N°13, Tanger",
            "opening_hours": {
                "open_now": true
            }
        },
        {
            "business_status": "OPERATIONAL",
            "geometry": {
                "location": {
                    "lat": 35.7752514,
                    "lng": -5.801707399999999
                },
                "viewport": {
                    "northeast": {
                        "lat": 35.77663148029151,
                        "lng": -5.800364669708498
                    },
                    "southwest": {
                        "lat": 35.77393351970851,
                        "lng": -5.803062630291502
                    }
                }
            },
            "icon": "https://maps.gstatic.com/mapfiles/place_api/icons/v1/png_71/generic_business-71.png",
            "name": "DamirCar",
            "photos": null,
            "place_id": "ChIJeWHAzleBCw0RkGbjfP6lkWQ",
            "rating": null,
            "reference": "ChIJeWHAzleBCw0RkGbjfP6lkWQ",
            "scope": "MEANZ TEST",
            "types": [
                "car_rental",
                "point_of_interest",
                "establishment"
            ],
            "user_ratings_total": null,
            "vicinity": "Rue Jamal eddin afghani Imm Rabie 2, etage 3,N36, Tanger",
            "opening_hours": {
                "open_now": true
            }
        },
        {
            "business_status": "OPERATIONAL",
            "geometry": {
                "location": {
                    "lat": 35.726032,
                    "lng": -5.912094000000001
                },
                "viewport": {
                    "northeast": {
                        "lat": 35.7275097302915,
                        "lng": -5.910935569708499
                    },
                    "southwest": {
                        "lat": 35.7248117697085,
                        "lng": -5.913633530291503
                    }
                }
            },
            "icon": "https://maps.gstatic.com/mapfiles/place_api/icons/v1/png_71/generic_business-71.png",
            "name": "Dollar Car Rental",
            "photos": [
                {
                    "height": 720,
                    "photo_reference": "ATtYBwK7Pj8IHxShUnrbiFkbmcE4Plx1D8qgOhFABOm2vacCU9HISGl7YWwTdlZiPbTlhBfgXI-AUjI1EqoI48IkBMH9GlaVcVJiR9WBodaG8AsgDBTyijArXa79CLcTmHHmKRgprIhol_DNJC1z-oEcQOIHZzA_MX2kTo6myzYEIra6Sb7y",
                    "width": 720
                }
            ],
            "place_id": "ChIJ6aErpb6HCw0RruHtcInKZMc",
            "rating": null,
            "reference": "ChIJ6aErpb6HCw0RruHtcInKZMc",
            "scope": "MEANZ TEST",
            "types": [
                "car_rental",
                "point_of_interest",
                "establishment"
            ],
            "user_ratings_total": null,
            "vicinity": "TANGIER, AP",
            "opening_hours": {
                "open_now": true
            }
        },
        {
            "business_status": "OPERATIONAL",
            "geometry": {
                "location": {
                    "lat": 35.778545,
                    "lng": -5.807928
                },
                "viewport": {
                    "northeast": {
                        "lat": 35.7799252302915,
                        "lng": -5.806538419708499
                    },
                    "southwest": {
                        "lat": 35.77722726970851,
                        "lng": -5.809236380291503
                    }
                }
            },
            "icon": "https://maps.gstatic.com/mapfiles/place_api/icons/v1/png_71/generic_business-71.png",
            "name": "Dollar Car Rental",
            "photos": [
                {
                    "height": 720,
                    "photo_reference": "ATtYBwKiyZULlIHEPlZtFj_nMQF3q0xUNDgDFVL-AnQyf6kmIiArp1kC0oLAr_7HMZT0qrTvQ-n5FiG02kayg8RTJRS1Feg32avqUA39fg8J0w5ENcI8SDjtwQE07i8hZ6T0VVGpGj7LGJDwkq_0t_P_EB0cjr61HoVmRJ-oOD55OleVpPJL",
                    "width": 720
                }
            ],
            "place_id": "ChIJm0qTkHOVCw0RgH6p-se6E8Y",
            "rating": null,
            "reference": "ChIJm0qTkHOVCw0RgH6p-se6E8Y",
            "scope": "MEANZ TEST",
            "types": [
                "car_rental",
                "point_of_interest",
                "establishment"
            ],
            "user_ratings_total": null,
            "vicinity": "36 Avenue Mohammed V, Tangier",
            "opening_hours": {
                "open_now": false
            }
        },
        {
            "business_status": "OPERATIONAL",
            "geometry": {
                "location": {
                    "lat": 35.7260174,
                    "lng": -5.912094799999999
                },
                "viewport": {
                    "northeast": {
                        "lat": 35.7274995302915,
                        "lng": -5.910939019708497
                    },
                    "southwest": {
                        "lat": 35.7248015697085,
                        "lng": -5.913636980291502
                    }
                }
            },
            "icon": "https://maps.gstatic.com/mapfiles/place_api/icons/v1/png_71/generic_business-71.png",
            "name": "Dollar [Tanger Airport]",
            "photos": null,
            "place_id": "ChIJmWZyLPiJCw0RLlJyKhg7qjI",
            "rating": null,
            "reference": "ChIJmWZyLPiJCw0RLlJyKhg7qjI",
            "scope": "MEANZ TEST",
            "types": [
                "car_rental",
                "point_of_interest",
                "establishment"
            ],
            "user_ratings_total": null,
            "vicinity": "Aéroport Ibn Battouta, Tanger",
            "opening_hours": {
                "open_now": true
            }
        },
        {
            "business_status": "OPERATIONAL",
            "geometry": {
                "location": {
                    "lat": 35.7783879,
                    "lng": -5.807722699999999
                },
                "viewport": {
                    "northeast": {
                        "lat": 35.7797741802915,
                        "lng": -5.806380619708497
                    },
                    "southwest": {
                        "lat": 35.7770762197085,
                        "lng": -5.809078580291501
                    }
                }
            },
            "icon": "https://maps.gstatic.com/mapfiles/place_api/icons/v1/png_71/generic_business-71.png",
            "name": "Dollar [Tanger City]",
            "photos": null,
            "place_id": "ChIJv615EPN_DA0RjCzxeP1h8W0",
            "rating": null,
            "reference": "ChIJv615EPN_DA0RjCzxeP1h8W0",
            "scope": "MEANZ TEST",
            "types": [
                "car_rental",
                "point_of_interest",
                "establishment"
            ],
            "user_ratings_total": null,
            "vicinity": "36 Avenue Mohammed V, Tangier",
            "opening_hours": {
                "open_now": false
            }
        },
        {
            "business_status": "OPERATIONAL",
            "geometry": {
                "location": {
                    "lat": 35.77621819999999,
                    "lng": -5.8099266
                },
                "viewport": {
                    "northeast": {
                        "lat": 35.77754323029149,
                        "lng": -5.808540019708497
                    },
                    "southwest": {
                        "lat": 35.77484526970849,
                        "lng": -5.811237980291502
                    }
                }
            },
            "icon": "https://maps.gstatic.com/mapfiles/place_api/icons/v1/png_71/generic_business-71.png",
            "name": "Dwarfs car",
            "photos": [
                {
                    "height": 591,
                    "photo_reference": "ATtYBwIDzILQVTgJE_pMVABG4qa1aUnAouQrV5R_0jKnJWpu1NkyFKtVHLBEDO5nEpvdpEvVO2ZsZisHOaVTz2dp1uVsJTStb9sbjufIWcWzzWgXsIudRw1U6XFPZjYg7scl917kArlbIdLZw5mQrrFzAXl4r6xfQ0k7igvYrBXvhsXs-fWI",
                    "width": 1063
                }
            ],
            "place_id": "ChIJ1VwmVbJ_DA0RLY9Inx657jE",
            "rating": null,
            "reference": "ChIJ1VwmVbJ_DA0RLY9Inx657jE",
            "scope": "MEANZ TEST",
            "types": [
                "car_rental",
                "point_of_interest",
                "establishment"
            ],
            "user_ratings_total": null,
            "vicinity": "Avenue de la résistance, Tanger",
            "opening_hours": {
                "open_now": true
            }
        },
        {
            "business_status": "OPERATIONAL",
            "geometry": {
                "location": {
                    "lat": 35.74483609999999,
                    "lng": -5.833769899999999
                },
                "viewport": {
                    "northeast": {
                        "lat": 35.7461900802915,
                        "lng": -5.832418169708498
                    },
                    "southwest": {
                        "lat": 35.74349211970851,
                        "lng": -5.835116130291503
                    }
                }
            },
            "icon": "https://maps.gstatic.com/mapfiles/place_api/icons/v1/png_71/generic_business-71.png",
            "name": "ELKABIR AUTO",
            "photos": [
                {
                    "height": 1280,
                    "photo_reference": "ATtYBwKub5zwR3tIrHz7a9oPcLL2F_nenoyE-kKni5x4CK1k9KBnWiaMENMshUDB7WgKuH7l7UOsOQIDDSUR9S754UFTbgvG6g_M9Uk1hjWf_9en0F7DKRokwvAZeCERuREqgTmoPFzHf5RxdIZfm9dS5OrIy-Pw6dRh0Hl3zmxmSf0PM9nx",
                    "width": 960
                }
            ],
            "place_id": "ChIJ1xflvD2HCw0RbpiUNpD6t-k",
            "rating": 5.0,
            "reference": "ChIJ1xflvD2HCw0RbpiUNpD6t-k",
            "scope": "MEANZ TEST",
            "types": [
                "car_rental",
                "point_of_interest",
                "establishment"
            ],
            "user_ratings_total": 1,
            "vicinity": "Avenue Arabie Saoudite, Tanger",
            "opening_hours": {
                "open_now": true
            }
        },